geometry,name,longitude,latitude,amenity_type
POINT (-0.0506518 51.4195343),Alexandra Recreation Ground,-0.0506518,51.4195343,park
POINT (-0.1029628 51.5005211),,-0.1029628,51.5005211,park
POINT (-0.1026154 51.5002933),,-0.1026154,51.5002933,park
POINT (-0.1969465 51.4768333),Birdwatch,-0.1969465,51.4768333,park
POINT (-0.2077559 51.6134673),Panoramic Park,-0.2077559,51.6134673,park
POINT (-0.1288306 51.5292528),Levita House Plantation,-0.1288306,51.5292528,park
POINT (-0.1042636 51.5023583),,-0.1042636,51.5023583,park
POINT (-0.0322818 51.5498054),Mabley Edible Garden,-0.0322818,51.5498054,park
POINT (-0.1557897 51.5303758),Bird watching area,-0.1557897,51.5303758,park
POINT (-0.1313793 51.6016419),Albert Road Garden,-0.1313793,51.6016419,park
POINT (0.1092937 51.4424214),Burnt Oak Lane Open Space,0.1092937,51.4424214,park
POINT (-0.1129881 51.4926499),Lambeth Walk Doorstep Green,-0.1129881,51.4926499,park
POINT (-0.1161183 51.4750744),,-0.1161183,51.4750744,park
POINT (-0.2178568 51.3822542),Lynmouth Park,-0.2178568,51.3822542,park
POINT (0.0960094 51.4813581),,0.0960094,51.4813581,park
POINT (0.0947895 51.4826852),,0.0947895,51.4826852,park
POINT (-0.0901641 51.4117904),Spa Wood,-0.0901641,51.4117904,park
POINT (-0.4177856 51.5016853),,-0.4177856,51.5016853,park
POINT (-0.0563023 51.475998),Laburnum Close Green,-0.0563023,51.475998,park
POINT (-0.1223623 51.5222325),National Hospital for Neurology and Neurosurgery,-0.1223623,51.5222325,hospital
POINT (-0.1183042 51.6320636),Priory Hospital,-0.1183042,51.6320636,hospital
POINT (-0.1663173 51.4732684),Bridge Lane Health Centre,-0.1663173,51.4732684,hospital
POINT (-0.1070682 51.423089),British Home & Hospital for Incurables,-0.1070682,51.423089,hospital
POINT (0.1316749 51.3582569),Chelsfield Park Hospital,0.1316749,51.3582569,hospital
POINT (-0.0045395 51.4082042),Sloane Hospital,-0.0045395,51.4082042,hospital
POINT (-0.1848418 51.3797984),Queen Mary's Childrens' Hospital,-0.1848418,51.3797984,hospital
POINT (-0.1715368 51.4020487),Chapel Orchard Day Surgery,-0.1715368,51.4020487,hospital
POINT (-0.3074425 51.6312434),UCL Institute of Orthopaedics and Musculoskeletal Science,-0.3074425,51.6312434,hospital
POINT (-0.1435858 51.5224709),The Portland Hospital for Women and Children,-0.1435858,51.5224709,hospital
POINT (-0.0925094 51.6249907),North London Hospice Winchmore Hill,-0.0925094,51.6249907,hospital
POINT (-0.1123103 51.3911811),Sexual Health Clinic,-0.1123103,51.3911811,hospital
POINT (-0.1115896 51.3895435),Macmillan Cancer Support Centres,-0.1115896,51.3895435,hospital
POINT (-0.1111571 51.3892531),Main Reception,-0.1111571,51.3892531,hospital
POINT (-0.108499 51.388644),Patient Advice and Liaison Service (PALS),-0.108499,51.388644,hospital
POINT (-0.1110591 51.3912926),Maternity Reception,-0.1110591,51.3912926,hospital
POINT (-0.1102788 51.3911477),Fertility Treatment,-0.1102788,51.3911477,hospital
POINT (-0.1093613 51.3905149),Gynaecology Department,-0.1093613,51.3905149,hospital
POINT (-0.1110648 51.3909333),Women's Health Unit,-0.1110648,51.3909333,hospital
POINT (-0.11113 51.3887004),Croydon Heart Centre,-0.11113,51.3887004,hospital
POINT (-0.1097438 51.3902698),Dental Department,-0.1097438,51.3902698,hospital
POINT (-0.1099614 51.3904846),Dermatology Department,-0.1099614,51.3904846,hospital
POINT (-0.108209 51.3886983),Diabetic Department,-0.108209,51.3886983,hospital
POINT (-0.1088304 51.3888297),MRI,-0.1088304,51.3888297,hospital
POINT (-0.1087926 51.3891088),Main X-Ray,-0.1087926,51.3891088,hospital
POINT (-0.1103441 51.3891619),Vascular Ultrasound,-0.1103441,51.3891619,hospital
POINT (-0.1102589 51.3890953),Wound Clinic,-0.1102589,51.3890953,hospital
POINT (-0.1099839 51.3893068),Moorfields Eye Unit,-0.1099839,51.3893068,hospital
POINT (-0.1097382 51.389144),The Willows (Children's Clinic),-0.1097382,51.389144,hospital
POINT (-0.1107072 51.3898664),Day Surgery Unit (DSU),-0.1107072,51.3898664,hospital
POINT (-0.1092569 51.3887022),Emergency Department,-0.1092569,51.3887022,hospital
POINT (-0.0927953 51.4687588),King's College Hospital Emergency Department,-0.0927953,51.4687588,hospital
POINT (-0.1404908 51.5238351),Elite Social Care Ltd,-0.1404908,51.5238351,hospital
POINT (-0.0927114 51.4691229),Dental Hospital,-0.0927114,51.4691229,hospital
POINT (-0.1213221 51.5216322),Great Ormond Street Outpatients - Zebra and Hippo Clinic Areas,-0.1213221,51.5216322,hospital
POINT (-0.3772728 51.4694387),Hounslow Medical Centre,-0.3772728,51.4694387,hospital
POINT (-0.1935029 51.6020306),Central Restaurant,-0.1935029,51.6020306,restaurant
POINT (-0.1722345 51.3980144),Casuarina Tree,-0.1722345,51.3980144,restaurant
POINT (-0.4816991 51.5271668),Karma Lounge,-0.4816991,51.5271668,restaurant
POINT (-0.4585479 51.525732),Jin Li,-0.4585479,51.525732,restaurant
POINT (-0.1325596 51.5110542),Old Tree Daiwan Bee,-0.1325596,51.5110542,restaurant
POINT (-0.063099 51.6499158),The Meeting Bar and Restaurant,-0.063099,51.6499158,restaurant
POINT (-0.3431793 51.5752552),,-0.3431793,51.5752552,restaurant
POINT (-0.3284018 51.472105),Cinnamon Lounge,-0.3284018,51.472105,restaurant
POINT (-0.1508364 51.3719881),The Grange,-0.1508364,51.3719881,restaurant
POINT (-0.3266794 51.4983082),The Royal,-0.3266794,51.4983082,restaurant
POINT (0.2346712 51.5939208),Bombay Palace,0.2346712,51.5939208,restaurant
POINT (-0.1257455 51.5229924),Farmer J,-0.1257455,51.5229924,restaurant
POINT (-0.0487489 51.4256431),Tratorria Raffaele,-0.0487489,51.4256431,restaurant
POINT (-0.0560633 51.5340961),Bistrotheque,-0.0560633,51.5340961,restaurant
POINT (-0.0656989 51.517788),Mithai Ghar,-0.0656989,51.517788,restaurant
POINT (-0.1312087 51.47539),A toca,-0.1312087,51.47539,restaurant
POINT (-0.1445726 51.4872464),Pimilco Spice,-0.1445726,51.4872464,restaurant
POINT (-0.1777821 51.4177496),Venus,-0.1777821,51.4177496,restaurant
POINT (-0.1782663 51.4182745),Corleone,-0.1782663,51.4182745,restaurant
POINT (-0.1780875 51.4136144),Nando's,-0.1780875,51.4136144,restaurant
POINT (-0.1291139 51.4651993),Alba,-0.1291139,51.4651993,restaurant
POINT (-0.1239279 51.4629835),Ferndales,-0.1239279,51.4629835,restaurant
POINT (-0.1378188 51.4992102),Bon Gusto,-0.1378188,51.4992102,restaurant
POINT (-0.1372558 51.4986304),Bank Restaurant & Bar,-0.1372558,51.4986304,restaurant
POINT (-0.1214512 51.5186204),Spaghetti House,-0.1214512,51.5186204,restaurant
POINT (-0.1667732 51.4427534),PizzaExpress,-0.1667732,51.4427534,restaurant
POINT (-0.105547 51.5896604),Le Chamarel,-0.105547,51.5896604,restaurant
POINT (-0.4275002 51.4622646),The Duke of Wellington,-0.4275002,51.4622646,restaurant
POINT (-0.0796137 51.6783282),Whitewebbs House,-0.0796137,51.6783282,restaurant
POINT (-0.1165376 51.505166),Ping Pong,-0.1165376,51.505166,restaurant
POINT (-0.1176917 51.5055251),Las Iguanas,-0.1176917,51.5055251,restaurant
POINT (-0.1451088 51.3582971),Hotrocks,-0.1451088,51.3582971,restaurant
POINT (-0.0789765 51.5366022),Waterhouse,-0.0789765,51.5366022,restaurant
POINT (-0.1407101 51.4631647),No. 32 The Old Town,-0.1407101,51.4631647,restaurant
POINT (-0.3110722 51.6178616),Nando's,-0.3110722,51.6178616,restaurant
POINT (-0.0872645 51.6595558),Chaseside,-0.0872645,51.6595558,restaurant
POINT (-0.0879064 51.6594016),Zaza,-0.0879064,51.6594016,restaurant
POINT (-0.0394594 51.5101159),La Figa,-0.0394594,51.5101159,restaurant
POINT (-0.0387865 51.5100931),Holy Cow,-0.0387865,51.5100931,restaurant
POINT (-0.1374885 51.4884009),Goya,-0.1374885,51.4884009,restaurant
POINT (-0.1414857 51.5127342),Sketch,-0.1414857,51.5127342,restaurant
POINT (-0.0509194 51.52821),The Full Monty,-0.0509194,51.52821,restaurant
POINT (-0.12483 51.4808939),Tia Maria Bar & Kitchen,-0.12483,51.4808939,restaurant
POINT (-0.0596251 51.5032228),Il Pirata London,-0.0596251,51.5032228,restaurant
POINT (-0.1170999 51.5062917),Giraffe,-0.1170999,51.5062917,restaurant
POINT (-0.137108 51.4888419),PizzaExpress,-0.137108,51.4888419,restaurant
POINT (0.0270735 51.5767346),Luppolo,0.0270735,51.5767346,restaurant
POINT (-0.054029 51.505619),River View Restaurant,-0.054029,51.505619,restaurant
POINT (-0.1187798 51.5178558),PizzaExpress,-0.1187798,51.5178558,restaurant
POINT (-0.0446566 51.5222995),Verdi's,-0.0446566,51.5222995,restaurant
POINT (-0.0828862 51.5271512),Jabinjia Hotpot,-0.0828862,51.5271512,restaurant
POINT (-0.1115445 51.4872825),PizzaExpress,-0.1115445,51.4872825,restaurant
POINT (-0.2862229 51.5096682),Ta Ke,-0.2862229,51.5096682,restaurant
POINT (-0.2879784 51.5101708),Nando's,-0.2879784,51.5101708,restaurant
POINT (-0.1570131 51.5416421),Lemonia,-0.1570131,51.5416421,restaurant
POINT (-0.1419336 51.4957287),Il Posto,-0.1419336,51.4957287,restaurant
POINT (-0.0068108 51.4955582),Memsaheb,-0.0068108,51.4955582,restaurant
POINT (-0.1393146 51.5109108),Aubaine,-0.1393146,51.5109108,restaurant
POINT (-0.1667879 51.5717552),The Brew House,-0.1667879,51.5717552,restaurant
POINT (0.0021123 51.5406572),Wraps and Wings,0.0021123,51.5406572,restaurant
POINT (-0.026204 51.4997405),Clifton Restaurant,-0.026204,51.4997405,restaurant
POINT (-0.1422056 51.5131214),Goodman,-0.1422056,51.5131214,restaurant
POINT (-0.1423314 51.513393),Mary's,-0.1423314,51.513393,restaurant
POINT (-0.140075 51.4920195),Uno,-0.140075,51.4920195,restaurant
POINT (-0.0136551 51.4861623),Kinkao Thai Restaurant,-0.0136551,51.4861623,restaurant
POINT (-0.175384 51.6306596),Maya Lounge,-0.175384,51.6306596,restaurant
POINT (-0.11448 51.4614013),Satay Bar,-0.11448,51.4614013,restaurant
POINT (-0.135199 51.49107),Moo Cantina Pimlico,-0.135199,51.49107,restaurant
POINT (-0.1399743 51.4924729),About Thyme,-0.1399743,51.4924729,restaurant
POINT (-0.136883 51.4889995),Pimlico Tandoori,-0.136883,51.4889995,restaurant
POINT (-0.1664209 51.4983961),Caffè Concerto,-0.1664209,51.4983961,restaurant
POINT (-0.0635587 51.514916),Dilpasand,-0.0635587,51.514916,restaurant
POINT (-0.1694677 51.4833465),No. Fifty Cheyne,-0.1694677,51.4833465,restaurant
POINT (-0.1876332 51.511834),Bella Italia,-0.1876332,51.511834,restaurant
POINT (-0.1874213 51.5125046),garum,-0.1874213,51.5125046,restaurant
POINT (-0.1151021 51.5056639),PizzaExpress,-0.1151021,51.5056639,restaurant
POINT (-0.1167364 51.5052279),Honest Burgers,-0.1167364,51.5052279,restaurant
POINT (-0.1169556 51.5052961),Côte Brasserie,-0.1169556,51.5052961,restaurant
POINT (-0.117588 51.5058176),Strada,-0.117588,51.5058176,restaurant
POINT (0.0261464 51.5054491),So! Restaurant Bar,0.0261464,51.5054491,restaurant
POINT (-0.0824293 51.4961898),Sanh Hing,-0.0824293,51.4961898,restaurant
POINT (-0.0825176 51.4961463),Tower Tandoori,-0.0825176,51.4961463,restaurant
POINT (-0.0914796 51.5006223),Simply Indian,-0.0914796,51.5006223,restaurant
POINT (-0.2645088 51.4995651),Thai Thai Café,-0.2645088,51.4995651,restaurant
POINT (-0.117683 51.5057051),Wagamama,-0.117683,51.5057051,restaurant
POINT (-0.1562741 51.4383116),Bodean's,-0.1562741,51.4383116,restaurant
POINT (-0.1018834 51.520045),Vinoteca Farringdon,-0.1018834,51.520045,restaurant
POINT (-0.129607 51.4975224),The Cinnamon Club,-0.129607,51.4975224,restaurant
POINT (-0.1464791 51.5360507),York & Albany,-0.1464791,51.5360507,restaurant
POINT (-0.1420045 51.5367912),Yokoya,-0.1420045,51.5367912,restaurant
POINT (-0.1648246 51.5165605),Al Arez Express,-0.1648246,51.5165605,restaurant
POINT (-0.1413619 51.5112833),StreetXO,-0.1413619,51.5112833,restaurant
POINT (-0.2780734 51.4924822),Napa,-0.2780734,51.4924822,restaurant
POINT (-0.2675256 51.4935053),Cucina China Buffet,-0.2675256,51.4935053,restaurant
POINT (-0.0951602 51.5080583),The Real Greek,-0.0951602,51.5080583,restaurant
POINT (-0.096 51.5081984),PizzaExpress,-0.096,51.5081984,restaurant
POINT (-0.0801739 51.5053308),Tavolino,-0.0801739,51.5053308,restaurant
POINT (-0.0803967 51.5051331),Gaucho,-0.0803967,51.5051331,restaurant
POINT (-0.108242 51.5083936),Oxo Tower Restaurant,-0.108242,51.5083936,restaurant
POINT (-0.1670048 51.5239089),Rio's Piri Piri,-0.1670048,51.5239089,restaurant
POINT (-0.1575888 51.5218536),PizzaExpress,-0.1575888,51.5218536,restaurant
POINT (-0.1038389 51.5361636),Franco Manca,-0.1038389,51.5361636,restaurant
POINT (-0.1039142 51.5359926),Wahaca,-0.1039142,51.5359926,restaurant
POINT (-0.1037374 51.5365176),Sessions,-0.1037374,51.5365176,restaurant
POINT (-0.1025179 51.5385359),Isarn,-0.1025179,51.5385359,restaurant
POINT (-0.1026162 51.539491),Terra Rossa,-0.1026162,51.539491,restaurant
POINT (-0.1026778 51.5397161),Le Mercury,-0.1026778,51.5397161,restaurant
POINT (-0.1026842 51.53978),La Porchetta,-0.1026842,51.53978,restaurant
POINT (-0.1039686 51.5351424),Street Burger,-0.1039686,51.5351424,restaurant
POINT (-0.1041977 51.5348703),Thai Square,-0.1041977,51.5348703,restaurant
POINT (-0.1037375 51.535348),PizzaExpress,-0.1037375,51.535348,restaurant
POINT (-0.1026836 51.5365453),Bellanger,-0.1026836,51.5365453,restaurant
POINT (-0.1029125 51.5370798),Nando's,-0.1029125,51.5370798,restaurant
POINT (-0.1022755 51.5379933),Carluccio's,-0.1022755,51.5379933,restaurant
POINT (-0.1021021 51.5389621),Hong Kong Restaurant,-0.1021021,51.5389621,restaurant
POINT (-0.1763505 51.492946),Al Dente,-0.1763505,51.492946,restaurant
POINT (-0.1760492 51.4931045),Gỗ,-0.1760492,51.4931045,restaurant
POINT (-0.175681 51.4937726),Papa Roma,-0.175681,51.4937726,restaurant
POINT (-0.1757732 51.4935463),Pravaas,-0.1757732,51.4935463,restaurant
POINT (-0.1764889 51.4931264),Wright Brothers,-0.1764889,51.4931264,restaurant
POINT (-0.1766099 51.4930693),Bella Italia,-0.1766099,51.4930693,restaurant
POINT (-0.1452722 51.5402228),Wagamama,-0.1452722,51.5402228,restaurant
POINT (-0.0251819 51.4078361),La Rascasse,-0.0251819,51.4078361,restaurant
POINT (-0.0315118 51.406701),Risto,-0.0315118,51.406701,restaurant
POINT (-0.3395744 51.5703064),Coffee 2 Cocktails Restaurant,-0.3395744,51.5703064,restaurant
POINT (-0.1648778 51.4959354),Scalini,-0.1648778,51.4959354,restaurant
POINT (-0.1083961 51.5025403),Franco Manca,-0.1083961,51.5025403,restaurant
POINT (-0.1329449 51.4634939),Nando's,-0.1329449,51.4634939,restaurant
POINT (-0.1062903 51.5478134),Buna Restaurant,-0.1062903,51.5478134,restaurant
POINT (-0.106562 51.534313),Wagamama,-0.106562,51.534313,restaurant
POINT (-0.1058677 51.5340057),Jones & Sons,-0.1058677,51.5340057,restaurant
POINT (-0.0405328 51.3989089),Lugana,-0.0405328,51.3989089,restaurant
POINT (-0.041254 51.3989174),Fethr Lounge,-0.041254,51.3989174,restaurant
POINT (-0.1515258 51.4897406),Rousillon,-0.1515258,51.4897406,restaurant
POINT (-0.1212446 51.5206484),Namaste Holborn,-0.1212446,51.5206484,restaurant
POINT (-0.26436 51.4963152),Le Vacherin,-0.26436,51.4963152,restaurant
POINT (-0.1747593 51.6305239),Izgara,-0.1747593,51.6305239,restaurant
POINT (-0.1230089 51.520761),The Shell,-0.1230089,51.520761,restaurant
POINT (-0.1227098 51.5205849),,-0.1227098,51.5205849,restaurant
POINT (-0.130632 51.4967352),Má Là,-0.130632,51.4967352,restaurant
POINT (0.0080113 51.5549347),WF Catering at Jenny Hammond Primary School,0.0080113,51.5549347,restaurant
POINT (-0.1390316 51.5129035),Pastaio,-0.1390316,51.5129035,restaurant
POINT (-0.2406865 51.4933414),Saigon Saigon,-0.2406865,51.4933414,restaurant
POINT (-0.2430575 51.493575),Tosa,-0.2430575,51.493575,restaurant
POINT (-0.2383387 51.4997397),Fait Maison,-0.2383387,51.4997397,restaurant
POINT (-0.1409348 51.4940378),Morinoya,-0.1409348,51.4940378,restaurant
POINT (-0.1525987 51.4909877),La Poule au Pot,-0.1525987,51.4909877,restaurant
POINT (-0.1325118 51.5195455),Busaba,-0.1325118,51.5195455,restaurant
POINT (-0.3153764 51.3468532),Beefeater,-0.3153764,51.3468532,restaurant
POINT (-0.1153178 51.518344),Bung Hole Cellars,-0.1153178,51.518344,restaurant
POINT (-0.1323749 51.4902186),Milbank Spice,-0.1323749,51.4902186,restaurant
POINT (-0.338227 51.5721163),Old Etonian,-0.338227,51.5721163,restaurant
POINT (-0.3383075 51.572065),Ristorante LA COLLINA,-0.3383075,51.572065,restaurant
POINT (-0.3394021 51.5706904),The Connoisseur,-0.3394021,51.5706904,restaurant
POINT (-0.3394743 51.5705895),Incanto,-0.3394743,51.5705895,restaurant
POINT (-0.0931799 51.4843567),"Quality Pie, Mash & Eels",-0.0931799,51.4843567,restaurant
POINT (-0.093956 51.483678),K & F Restaurant,-0.093956,51.483678,restaurant
POINT (-0.0840084 51.5257393),Wahaca,-0.0840084,51.5257393,restaurant
POINT (-0.1256466 51.6272874),Cataleya Resto & Lounge,-0.1256466,51.6272874,restaurant
POINT (-0.103591 51.5376283),Le Sacré Coeur,-0.103591,51.5376283,restaurant
POINT (-0.1050165 51.5354621),ASK Italian,-0.1050165,51.5354621,restaurant
POINT (-0.1068254 51.5362614),Vigata,-0.1068254,51.5362614,restaurant
POINT (-0.1030744 51.5376299),Kilis,-0.1030744,51.5376299,restaurant
POINT (-0.1031478 51.5376312),Rosa's Thai Cafe,-0.1031478,51.5376312,restaurant
POINT (-0.1032571 51.5376287),Mem & Laz,-0.1032571,51.5376287,restaurant
POINT (-0.1029448 51.5376616),Gallipoli Bistro,-0.1029448,51.5376616,restaurant
POINT (-0.1028456 51.5391936),Antonio's,-0.1028456,51.5391936,restaurant
POINT (0.0505393 51.5423552),Saravanaa Bhavan,0.0505393,51.5423552,restaurant
POINT (-0.103042 51.5412618),Pera,-0.103042,51.5412618,restaurant
POINT (-0.1031021 51.5415596),VQ,-0.1031021,51.5415596,restaurant
POINT (-0.1031181 51.5416152),The Blue Legume,-0.1031181,51.5416152,restaurant
POINT (-0.1032134 51.542405),Santa Maria,-0.1032134,51.542405,restaurant
POINT (-0.1028704 51.5428465),Gem,-0.1028704,51.5428465,restaurant
POINT (-0.104055 51.54651),La Pasta,-0.104055,51.54651,restaurant
POINT (-0.10382 51.546677),Trevi,-0.10382,51.546677,restaurant
POINT (0.0494918 51.5441568),,0.0494918,51.5441568,restaurant
POINT (0.0492343 51.5450375),,0.0492343,51.5450375,restaurant
POINT (-0.125102 51.5281039),NONÓS,-0.125102,51.5281039,restaurant
POINT (-0.1273566 51.5283992),PizzaExpress,-0.1273566,51.5283992,restaurant
POINT (-0.1131598 51.5434687),Loman Cafe Bistro,-0.1131598,51.5434687,restaurant
POINT (-0.1433914 51.5693661),Lauderdale House Restaurant,-0.1433914,51.5693661,restaurant
POINT (-0.1174491 51.5420814),Tasty Spice,-0.1174491,51.5420814,restaurant
POINT (-0.1174507 51.5421274),Best Taste,-0.1174507,51.5421274,restaurant
POINT (-0.1175004 51.5424207),Didar,-0.1175004,51.5424207,restaurant
POINT (-0.115721 51.5466884),Kokeb,-0.115721,51.5466884,restaurant
POINT (-0.1496829 51.4701876),Santa Maria del Sur,-0.1496829,51.4701876,restaurant
POINT (0.0509186 51.5393844),,0.0509186,51.5393844,restaurant
POINT (-0.1389599 51.5227666),Indian YMCA,-0.1389599,51.5227666,restaurant
POINT (0.0512763 51.5381578),Chennai Dosa,0.0512763,51.5381578,restaurant
POINT (-0.0837544 51.5290103),Schnitzel Heaven,-0.0837544,51.5290103,restaurant
POINT (-0.1111751 51.5324533),Basilico,-0.1111751,51.5324533,restaurant
POINT (-0.1042757 51.5343313),Frederick's,-0.1042757,51.5343313,restaurant
POINT (-0.1014736 51.5367673),The Diner,-0.1014736,51.5367673,restaurant
POINT (-0.1104328 51.5539104),Mega Bite Cafe,-0.1104328,51.5539104,restaurant
POINT (-0.1093681 51.5195377),Mugen,-0.1093681,51.5195377,restaurant
POINT (-0.1199798 51.5177803),Samurai,-0.1199798,51.5177803,restaurant
POINT (-0.1192595 51.516238),Sushi Hiroba,-0.1192595,51.516238,restaurant
POINT (-0.1351842 51.5136681),Yauatcha,-0.1351842,51.5136681,restaurant
POINT (-0.0848633 51.5055547),Vivat Bacchus,-0.0848633,51.5055547,restaurant
POINT (-0.1005934 51.5463754),Firezza,-0.1005934,51.5463754,restaurant
POINT (-0.1012753 51.5462567),Prawn on the Lawn,-0.1012753,51.5462567,restaurant
POINT (-0.1757345 51.4626337),Jam-1,-0.1757345,51.4626337,restaurant
POINT (-0.1385979 51.49366),Gustoso,-0.1385979,51.49366,restaurant
POINT (-0.1407675 51.497441),Zizzi,-0.1407675,51.497441,restaurant
POINT (-0.1402214 51.4976354),Nando's,-0.1402214,51.4976354,restaurant
POINT (-0.1101431 51.5659382),Osteria Tufo,-0.1101431,51.5659382,restaurant
POINT (-0.1036721 51.5649814),Stoplight,-0.1036721,51.5649814,restaurant
POINT (-0.1681089 51.4792983),Source,-0.1681089,51.4792983,restaurant
POINT (-0.17064 51.478862),PizzaExpress,-0.17064,51.478862,restaurant
POINT (-0.0979813 51.5542179),Donna Sofia,-0.0979813,51.5542179,restaurant
POINT (-0.1027841 51.5402302),Fig & Olive,-0.1027841,51.5402302,restaurant
POINT (-0.1027567 51.540105),SKÅL,-0.1027567,51.540105,restaurant
POINT (-0.1026872 51.5398416),Rabieng Thai,-0.1026872,51.5398416,restaurant
POINT (-0.1299579 51.5074016),Thai Square,-0.1299579,51.5074016,restaurant
POINT (-0.126123 51.508406),PizzaExpress,-0.126123,51.508406,restaurant
POINT (-0.1063884 51.5478856),Tbilisi,-0.1063884,51.5478856,restaurant
POINT (-0.1023191 51.5400827),Nem Nem,-0.1023191,51.5400827,restaurant
POINT (-0.1022794 51.5399024),La Petite Auberge,-0.1022794,51.5399024,restaurant
POINT (-0.1029861 51.5376235),La Farola,-0.1029861,51.5376235,restaurant
POINT (-0.1028048 51.537884),1251,-0.1028048,51.537884,restaurant
POINT (-0.1025086 51.5385698),Café Gallipoli Again,-0.1025086,51.5385698,restaurant
POINT (-0.1060278 51.5335893),,-0.1060278,51.5335893,restaurant
POINT (-0.1039344 51.5359355),Desperados,-0.1039344,51.5359355,restaurant
POINT (-0.1049273 51.534842),Pho,-0.1049273,51.534842,restaurant
POINT (-0.1294685 51.5108246),Pizza Hut,-0.1294685,51.5108246,restaurant
POINT (-0.1329228 51.5100549),Angus Steakhouse,-0.1329228,51.5100549,restaurant
POINT (-0.1324716 51.5101296),HAPPY,-0.1324716,51.5101296,restaurant
POINT (-0.1207484 51.5120973),Byron Burgers,-0.1207484,51.5120973,restaurant
POINT (-0.1029829 51.5369612),Zen Mondo,-0.1029829,51.5369612,restaurant
POINT (-0.1012364 51.5391673),zaffrani,-0.1012364,51.5391673,restaurant
POINT (-0.1081436 51.5491954),Roma,-0.1081436,51.5491954,restaurant
POINT (-0.1756395 51.4205708),Fish Inn,-0.1756395,51.4205708,restaurant
POINT (-0.1045325 51.5467447),Nón,-0.1045325,51.5467447,restaurant
POINT (-0.1085513 51.5495339),Berto,-0.1085513,51.5495339,restaurant
POINT (-0.1087655 51.549711),Emperor,-0.1087655,51.549711,restaurant
POINT (-0.1088196 51.5497537),Lamezia,-0.1088196,51.5497537,restaurant
POINT (-0.1089235 51.5498429),Sambal to go,-0.1089235,51.5498429,restaurant
POINT (-0.1089817 51.5498868),Sambal Shiok Laksa Bar,-0.1089817,51.5498868,restaurant
POINT (-0.1406901 51.5263992),La Fenice,-0.1406901,51.5263992,restaurant
POINT (-0.1361415 51.5189362),Da Paolo,-0.1361415,51.5189362,restaurant
POINT (-0.0816372 51.5278419),8 Hoxton Square,-0.0816372,51.5278419,restaurant
POINT (-0.0810456 51.5272599),Cottons,-0.0810456,51.5272599,restaurant
POINT (-0.1701594 51.4783358),Battersea Grill,-0.1701594,51.4783358,restaurant
POINT (-0.169614 51.4782369),Mansoon,-0.169614,51.4782369,restaurant
POINT (-0.0739522 51.5655495),Sweet Lemon,-0.0739522,51.5655495,restaurant
POINT (-0.0730535 51.56318),Itto,-0.0730535,51.56318,restaurant
POINT (-0.0732736 51.5628273),Wander,-0.0732736,51.5628273,restaurant
POINT (-0.0733812 51.5622719),19 Numara Bos Cirrik II,-0.0733812,51.5622719,restaurant
POINT (-0.0735261 51.5616499),Franco Manca,-0.0735261,51.5616499,restaurant
POINT (-0.1069321 51.5391032),Viet Garden,-0.1069321,51.5391032,restaurant
POINT (-0.0739318 51.5594639),The Fishery Fish Bar,-0.0739318,51.5594639,restaurant
POINT (-0.0741243 51.5581648),Testi,-0.0741243,51.5581648,restaurant
POINT (-0.0741699 51.5577212),Victory Mansion,-0.0741699,51.5577212,restaurant
POINT (-0.1323115 51.5871923),Kiss the Koala,-0.1323115,51.5871923,restaurant
POINT (-0.334324 51.4271329),PizzaExpress,-0.334324,51.4271329,restaurant
POINT (-0.1647066 51.5198229),Dinings,-0.1647066,51.5198229,restaurant
POINT (-0.070261 51.528927),Brawn,-0.070261,51.528927,restaurant
POINT (-0.3391354 51.4391927),Tandoori & Balti Palace,-0.3391354,51.4391927,restaurant
POINT (-0.1303581 51.5123678),New World,-0.1303581,51.5123678,restaurant
POINT (-0.0763418 51.562252),Rasa Street,-0.0763418,51.562252,restaurant
POINT (-0.0758697 51.5620821),Royal India,-0.0758697,51.5620821,restaurant
POINT (-0.0744908 51.5619397),Fuji,-0.0744908,51.5619397,restaurant
POINT (-0.1502324 51.4440935),Meze Kitchen,-0.1502324,51.4440935,restaurant
POINT (-0.0741731 51.5239594),Dirty Bones,-0.0741731,51.5239594,restaurant
POINT (-0.1964918 51.5991604),The Two Brothers,-0.1964918,51.5991604,restaurant
POINT (-0.1325109 51.4745149),Nile Restaurant,-0.1325109,51.4745149,restaurant
POINT (-0.1381623 51.4708688),Orit Ethiopian Restaurant & Bar,-0.1381623,51.4708688,restaurant
POINT (-0.0250963 51.4080493),Branded,-0.0250963,51.4080493,restaurant
POINT (-0.0254291 51.4081653),Pierluigi's,-0.0254291,51.4081653,restaurant
POINT (-0.1337974 51.5141462),Refuel,-0.1337974,51.5141462,restaurant
POINT (-0.1359571 51.5163212),Nando's,-0.1359571,51.5163212,restaurant
POINT (-0.1360022 51.5163911),Enish,-0.1360022,51.5163911,restaurant
POINT (-0.0983024 51.5578989),Mihan,-0.0983024,51.5578989,restaurant
POINT (-0.097922 51.557254),Au lac,-0.097922,51.557254,restaurant
POINT (-0.1678004 51.4438433),Brinkley's Kitchen,-0.1678004,51.4438433,restaurant
POINT (-0.1656656 51.4460277),Chez Bruce,-0.1656656,51.4460277,restaurant
POINT (-0.1457831 51.49457),Prezzo,-0.1457831,51.49457,restaurant
POINT (-0.1431015 51.4989784),Pronto a Mangia,-0.1431015,51.4989784,restaurant
POINT (-0.1446491 51.5406973),Camden Diner,-0.1446491,51.5406973,restaurant
POINT (-0.131671 51.5169332),Kikuchi,-0.131671,51.5169332,restaurant
POINT (-0.0761301 51.5409666),Taru,-0.0761301,51.5409666,restaurant
POINT (-0.1889183 51.5019612),Côte Brasserie,-0.1889183,51.5019612,restaurant
POINT (-0.1882594 51.5022675),Fouberts,-0.1882594,51.5022675,restaurant
POINT (-0.1874698 51.5021632),Zaika,-0.1874698,51.5021632,restaurant
POINT (-0.1848227 51.5017242),Brunello Bar and Restaurant,-0.1848227,51.5017242,restaurant
POINT (-0.114262 51.5700857),Jai Krishna,-0.114262,51.5700857,restaurant
POINT (-0.1136177 51.5698146),Il Picolo Diavolo,-0.1136177,51.5698146,restaurant
POINT (-0.1128017 51.5694564),Pappagone,-0.1128017,51.5694564,restaurant
POINT (-0.1125006 51.5693235),The Chippy,-0.1125006,51.5693235,restaurant
POINT (-0.1123093 51.569247),Luna Llena,-0.1123093,51.569247,restaurant
POINT (-0.1051425 51.5646341),Nigerian Kitchen,-0.1051425,51.5646341,restaurant
POINT (-0.1051818 51.5647332),Dotori,-0.1051818,51.5647332,restaurant
POINT (-0.1043561 51.5778051),La Viña,-0.1043561,51.5778051,restaurant
POINT (-0.2052654 51.4195848),Bill's,-0.2052654,51.4195848,restaurant
POINT (-0.1292936 51.5140094),Salsa!,-0.1292936,51.5140094,restaurant
POINT (-0.129956 51.5153476),Apricot,-0.129956,51.5153476,restaurant
POINT (-0.2130946 51.5546425),The Shannon,-0.2130946,51.5546425,restaurant
POINT (-0.2128252 51.5548127),Zeytoon,-0.2128252,51.5548127,restaurant
POINT (-0.2124647 51.5545352),84 West Brasserie & Grill,-0.2124647,51.5545352,restaurant
POINT (-0.2126432 51.5540877),Vali's Four Seasons,-0.2126432,51.5540877,restaurant
POINT (-0.2121643 51.5542397),Top Wok,-0.2121643,51.5542397,restaurant
POINT (-0.2124788 51.5539721),Milad,-0.2124788,51.5539721,restaurant
POINT (-0.2120524 51.5541157),Khana,-0.2120524,51.5541157,restaurant
POINT (-0.2120184 51.5540763),Lininiya,-0.2120184,51.5540763,restaurant
POINT (-0.2116698 51.5537385),Mango Grills,-0.2116698,51.5537385,restaurant
POINT (-0.2116543 51.5533076),D'Den,-0.2116543,51.5533076,restaurant
POINT (-0.2116176 51.5532813),Persia Restaurant,-0.2116176,51.5532813,restaurant
POINT (-0.2111705 51.5533273),Taste of Lahore,-0.2111705,51.5533273,restaurant
POINT (-0.2106267 51.5525452),Abyssinia,-0.2106267,51.5525452,restaurant
POINT (-0.2105514 51.5524925),Villa Carioca,-0.2105514,51.5524925,restaurant
POINT (-0.3739016 51.6079735),Social Dhaba,-0.3739016,51.6079735,restaurant
POINT (-0.1223238 51.5317695),Bar + Block,-0.1223238,51.5317695,restaurant
POINT (-0.1421738 51.4938754),Giraffe,-0.1421738,51.4938754,restaurant
POINT (-0.2134653 51.4092057),Raka Indian Cuisine,-0.2134653,51.4092057,restaurant
POINT (0.0160931 51.4059389),Franco Manca,0.0160931,51.4059389,restaurant
POINT (0.0159352 51.4015111),ETNA,0.0159352,51.4015111,restaurant
POINT (0.0135717 51.4059532),The Diners Inn,0.0135717,51.4059532,restaurant
POINT (0.0129164 51.4063105),Toast,0.0129164,51.4063105,restaurant
POINT (0.0127882 51.4063824),Mixta,0.0127882,51.4063824,restaurant
POINT (0.0126483 51.4064546),Bowl O Pho,0.0126483,51.4064546,restaurant
POINT (0.0121023 51.4068222),Blue Harbour,0.0121023,51.4068222,restaurant
POINT (0.0118947 51.4069899),Mount Everest,0.0118947,51.4069899,restaurant
POINT (0.0127907 51.4066506),Sanxia Chinese Restaurant & Bar,0.0127907,51.4066506,restaurant
POINT (0.01358 51.4062184),Havet,0.01358,51.4062184,restaurant
POINT (0.0158506 51.4065313),Miso,0.0158506,51.4065313,restaurant
POINT (0.0162281 51.4073689),Cow And Pig,0.0162281,51.4073689,restaurant
POINT (0.0163788 51.407598),Aqua Bar & Grill,0.0163788,51.407598,restaurant
POINT (0.0166475 51.4074549),Carved Dive,0.0166475,51.4074549,restaurant
POINT (0.0165169 51.4073528),Nam Thai,0.0165169,51.4073528,restaurant
POINT (0.0162365 51.407024),New India,0.0162365,51.407024,restaurant
POINT (0.0153238 51.4067076),Treasure Of China,0.0153238,51.4067076,restaurant
POINT (0.0170229 51.4008597),Olive Tree Cafe,0.0170229,51.4008597,restaurant
POINT (-0.1223523 51.5115385),Ladurée,-0.1223523,51.5115385,restaurant
POINT (-0.2182473 51.4251481),Carluccio's,-0.2182473,51.4251481,restaurant
POINT (-0.2185676 51.42519),Giggling Squid,-0.2185676,51.42519,restaurant
POINT (-0.219229 51.425311),Cent Anni,-0.219229,51.425311,restaurant
POINT (-0.2170882 51.4261139),The Fire Stables,-0.2170882,51.4261139,restaurant
POINT (-0.2163353 51.3566456),Prezzo,-0.2163353,51.3566456,restaurant
POINT (0.0591447 51.3968319),Bickley Manor Hotel and Restaurant,0.0591447,51.3968319,restaurant
POINT (-0.3046345 51.5119589),Turtle Bay,-0.3046345,51.5119589,restaurant
POINT (-0.1217419 51.5309272),Camino,-0.1217419,51.5309272,restaurant
POINT (-0.034469 51.53181),Roman Tandoori,-0.034469,51.53181,restaurant
POINT (-0.1502349 51.5400274),Michael Nadra,-0.1502349,51.5400274,restaurant
POINT (-0.0912889 51.4942989),Wabi Shebele,-0.0912889,51.4942989,restaurant
POINT (-0.1666212 51.4606721),Banana Tree,-0.1666212,51.4606721,restaurant
POINT (-0.166765 51.4606144),Nando's,-0.166765,51.4606144,restaurant
POINT (-0.1658306 51.4609121),Hana,-0.1658306,51.4609121,restaurant
POINT (-0.1668156 51.4599463),Buona Sera,-0.1668156,51.4599463,restaurant
POINT (-0.1063447 51.5041675),EV,-0.1063447,51.5041675,restaurant
POINT (-0.0983889 51.4920367),Dragon Castle,-0.0983889,51.4920367,restaurant
POINT (-0.1646164 51.4875453),Ziani,-0.1646164,51.4875453,restaurant
POINT (-0.1654071 51.48902),PizzaExpress,-0.1654071,51.48902,restaurant
POINT (-0.159321 51.4910983),Saatchi Gallery Bar & Brasserie,-0.159321,51.4910983,restaurant
POINT (-0.1591235 51.4911785),Manicomio,-0.1591235,51.4911785,restaurant
POINT (-0.1581178 51.4917334),Comptoir Libanais,-0.1581178,51.4917334,restaurant
POINT (-0.2313713 51.5016548),Rajput,-0.2313713,51.5016548,restaurant
POINT (-0.1326509 51.5157962),Govinda's,-0.1326509,51.5157962,restaurant
POINT (-0.1948723 51.5072426),Kensington Wine Rooms,-0.1948723,51.5072426,restaurant
POINT (0.2192013 51.5626846),Nando's,0.2192013,51.5626846,restaurant
POINT (-0.1593999 51.5139056),Prezzo,-0.1593999,51.5139056,restaurant
POINT (-0.1597282 51.5140455),Spaghetti House,-0.1597282,51.5140455,restaurant
POINT (-0.1612886 51.5148834),Vinoteca Marylebone,-0.1612886,51.5148834,restaurant
POINT (-0.1585511 51.5156197),La Masseria,-0.1585511,51.5156197,restaurant
POINT (-0.158251 51.5149549),Zayna,-0.158251,51.5149549,restaurant
POINT (-0.1580496 51.5150584),Red Sun,-0.1580496,51.5150584,restaurant
POINT (-0.1414978 51.5134245),Patara - Oxford Circus,-0.1414978,51.5134245,restaurant
POINT (-0.1472742 51.498271),The Mango Tree,-0.1472742,51.498271,restaurant
POINT (-0.1509327 51.5098163),Scott's,-0.1509327,51.5098163,restaurant
POINT (-0.1518022 51.5099653),Richoux,-0.1518022,51.5099653,restaurant
POINT (-0.1552951 51.5100947),Corrigans,-0.1552951,51.5100947,restaurant
POINT (-0.1084984 51.5266687),Double Dragon,-0.1084984,51.5266687,restaurant
POINT (-0.1098199 51.5258703),Kolossi Grill,-0.1098199,51.5258703,restaurant
POINT (-0.2251599 51.5028247),Kush 1070 BC,-0.2251599,51.5028247,restaurant
POINT (-0.2249107 51.5026169),Ho-Ja,-0.2249107,51.5026169,restaurant
POINT (-0.1435405 51.5070931),Langan's Brasserie,-0.1435405,51.5070931,restaurant
POINT (-0.0266306 51.40774),Miso,-0.0266306,51.40774,restaurant
POINT (-0.1413215 51.510005),Peyote,-0.1413215,51.510005,restaurant
POINT (-0.1398138 51.5111738),Momo north-African & Mediterranean,-0.1398138,51.5111738,restaurant
POINT (-0.025217 51.4101897),imm Thai Fusion,-0.025217,51.4101897,restaurant
POINT (-0.2251765 51.5898675),Dil Tandoori,-0.2251765,51.5898675,restaurant
POINT (-0.2240812 51.5898894),Kaifeng,-0.2240812,51.5898894,restaurant
POINT (-0.2222959 51.5896892),Iskele,-0.2222959,51.5896892,restaurant
POINT (-0.2226446 51.5899992),Jun,-0.2226446,51.5899992,restaurant
POINT (-0.1118344 51.6017625),Nexx Level,-0.1118344,51.6017625,restaurant
POINT (-0.110668 51.5986555),Brown Eagle,-0.110668,51.5986555,restaurant
POINT (-0.1103695 51.598082),Paramount,-0.1103695,51.598082,restaurant
POINT (-0.1092322 51.5973377),Fryer's Delight,-0.1092322,51.5973377,restaurant
POINT (-0.097064 51.5275622),Fish Central,-0.097064,51.5275622,restaurant
POINT (-0.1838594 51.4990881),Jakobs,-0.1838594,51.4990881,restaurant
POINT (-0.1511296 51.5134103),Spaghetti House,-0.1511296,51.5134103,restaurant
POINT (-0.1511754 51.5134993),Joury,-0.1511754,51.5134993,restaurant
POINT (-0.1510385 51.5123537),Maze,-0.1510385,51.5123537,restaurant
POINT (-0.1533387 51.5132205),Saltie Girl,-0.1533387,51.5132205,restaurant
POINT (-0.1359965 51.5113507),Kiln,-0.1359965,51.5113507,restaurant
POINT (0.0176019 51.5201728),Jol Sagar,0.0176019,51.5201728,restaurant
POINT (0.0183536 51.5201684),Pearl City,0.0183536,51.5201684,restaurant
POINT (-0.1100482 51.5684366),Petek,-0.1100482,51.5684366,restaurant
POINT (-0.1103915 51.5686345),Nando's,-0.1103915,51.5686345,restaurant
POINT (-0.1689112 51.4933135),Claude Bosi at Bibendum,-0.1689112,51.4933135,restaurant
POINT (-0.1676682 51.4929063),Gaucho,-0.1676682,51.4929063,restaurant
POINT (-0.0757317 51.5212872),Delamina East,-0.0757317,51.5212872,restaurant
POINT (-0.070557 51.5252559),Maida,-0.070557,51.5252559,restaurant
POINT (-0.0706488 51.525465),Yanji BBQ,-0.0706488,51.525465,restaurant
POINT (-0.0703133 51.5253657),Tas Firin,-0.0703133,51.5253657,restaurant
POINT (-0.0218839 51.5042192),No 35 Mackenzie Walk,-0.0218839,51.5042192,restaurant
POINT (-0.023683 51.504555),Amerigo Vespucci,-0.023683,51.504555,restaurant
POINT (-0.0817795 51.5003181),Caphe House,-0.0817795,51.5003181,restaurant
POINT (-0.0802056 51.4975964),Lokma,-0.0802056,51.4975964,restaurant
POINT (-0.1571901 51.5127656),Boisdale of Mayfair,-0.1571901,51.5127656,restaurant
POINT (-0.2147169 51.3581233),Cheam Charcoal Grill,-0.2147169,51.3581233,restaurant
POINT (-0.0664925 51.5172361),Baraka Eatery,-0.0664925,51.5172361,restaurant
POINT (-0.3077667 51.406987),Nando's,-0.3077667,51.406987,restaurant
POINT (-0.3083069 51.4093894),Brown's,-0.3083069,51.4093894,restaurant
POINT (-0.0602237 51.4314247),Hibagon Sushi and Grill,-0.0602237,51.4314247,restaurant
POINT (-0.100962 51.477472),New Dewaniam,-0.100962,51.477472,restaurant
POINT (-0.2159771 51.3566861),The Star,-0.2159771,51.3566861,restaurant
POINT (-0.2159557 51.3564818),Lal Akash,-0.2159557,51.3564818,restaurant
POINT (-0.21691 51.3577814),PizzaExpress,-0.21691,51.3577814,restaurant
POINT (-0.1544456 51.4410743),Gurkhas,-0.1544456,51.4410743,restaurant
POINT (-0.0965593 51.4991612),Hungry Bears,-0.0965593,51.4991612,restaurant
POINT (-0.1479994 51.5125491),Fera at Claridge's,-0.1479994,51.5125491,restaurant
POINT (-0.1754374 51.4849308),Bluebird,-0.1754374,51.4849308,restaurant
POINT (-0.1750486 51.4847143),New Culture Revolution,-0.1750486,51.4847143,restaurant
POINT (-0.1719504 51.4861524),Made in Italy,-0.1719504,51.4861524,restaurant
POINT (-0.1709939 51.4865129),My Old Dutch,-0.1709939,51.4865129,restaurant
POINT (-0.289626 51.5174028),Villa Toscana,-0.289626,51.5174028,restaurant
POINT (-0.1039421 51.5366241),Oregano,-0.1039421,51.5366241,restaurant
POINT (-0.2908579 51.5174892),Momo,-0.2908579,51.5174892,restaurant
POINT (-0.097685 51.539574),,-0.097685,51.539574,restaurant
POINT (-0.1038519 51.5349435),Fantuan,-0.1038519,51.5349435,restaurant
POINT (-0.1382964 51.5057653),Avenue,-0.1382964,51.5057653,restaurant
POINT (-0.1470176 51.4958427),Santini,-0.1470176,51.4958427,restaurant
POINT (-0.1480744 51.4949379),Ken Lo's Memories of China,-0.1480744,51.4949379,restaurant
POINT (-0.1713439 51.5180687),Fantasia Palace,-0.1713439,51.5180687,restaurant
POINT (-0.1502046 51.4460129),Gazette,-0.1502046,51.4460129,restaurant
POINT (-0.1941297 51.5152505),Côte,-0.1941297,51.5152505,restaurant
POINT (-0.191078 51.5153824),Nando's,-0.191078,51.5153824,restaurant
POINT (-0.1890529 51.5156337),Khan's,-0.1890529,51.5156337,restaurant
POINT (-0.1895894 51.5155659),Sadaf,-0.1895894,51.5155659,restaurant
POINT (-0.1622068 51.5147599),Sidi Maarouf,-0.1622068,51.5147599,restaurant
POINT (-0.1627237 51.5151279),Maroush,-0.1627237,51.5151279,restaurant
POINT (-0.1649671 51.5166471),Mahal,-0.1649671,51.5166471,restaurant
POINT (-0.1663181 51.5177837),Salwa Restaurant,-0.1663181,51.5177837,restaurant
POINT (-0.1667738 51.5178913),Freej Swaileh,-0.1667738,51.5178913,restaurant
POINT (-0.1662356 51.5178348),Patogh Restaurant,-0.1662356,51.5178348,restaurant
POINT (-0.1223495 51.5988761),Methi Restaurant,-0.1223495,51.5988761,restaurant
POINT (-0.0725497 51.515797),Charlie's Corner,-0.0725497,51.515797,restaurant
POINT (-0.1804351 51.5192644),Pearl Liang,-0.1804351,51.5192644,restaurant
POINT (-0.1888896 51.5183995),The Bengal,-0.1888896,51.5183995,restaurant
POINT (-0.1800119 51.5196339),Massis,-0.1800119,51.5196339,restaurant
POINT (-0.1039336 51.4331228),Lal Baag,-0.1039336,51.4331228,restaurant
POINT (-0.1041282 51.4349512),Efe's Restaurant,-0.1041282,51.4349512,restaurant
POINT (-0.1060598 51.4398476),Restaurante Castelo,-0.1060598,51.4398476,restaurant
POINT (-0.1245485 51.580731),Geographical Indications,-0.1245485,51.580731,restaurant
POINT (-0.1242345 51.5805979),Dragon,-0.1242345,51.5805979,restaurant
POINT (-0.0667234 51.5972707),Adana Sofrasi,-0.0667234,51.5972707,restaurant
POINT (-0.0697336 51.5914737),The Garden House,-0.0697336,51.5914737,restaurant
POINT (-0.1506123 51.4446554),Harrison's,-0.1506123,51.4446554,restaurant
POINT (-0.1491423 51.4416559),Caminata,-0.1491423,51.4416559,restaurant
POINT (-0.2099336 51.4695325),Pure Indian Cooking,-0.2099336,51.4695325,restaurant
POINT (-0.1875875 51.5135402),Bella Italia,-0.1875875,51.5135402,restaurant
POINT (-0.1875569 51.5133401),Gold Mine,-0.1875569,51.5133401,restaurant
POINT (-0.1875454 51.5132665),Halal Restaurant,-0.1875454,51.5132665,restaurant
POINT (-0.1874783 51.51291),Four Seasons,-0.1874783,51.51291,restaurant
POINT (-0.1873322 51.5119269),Maharaja,-0.1873322,51.5119269,restaurant
POINT (-0.1873281 51.5118787),Mamma Mia,-0.1873281,51.5118787,restaurant
POINT (-0.1871472 51.5115602),Pizza Pilgrims,-0.1871472,51.5115602,restaurant
POINT (-0.1874197 51.5111383),Casa Mia,-0.1874197,51.5111383,restaurant
POINT (-0.1869022 51.510795),Mandarin Kitchen,-0.1869022,51.510795,restaurant
POINT (-0.1615256 51.4859359),Maze Grill,-0.1615256,51.4859359,restaurant
POINT (-0.0909682 51.5048353),Katzenjammers Bavarian Bierkeller,-0.0909682,51.5048353,restaurant
POINT (-0.1744965 51.4941297),Brother Marcus,-0.1744965,51.4941297,restaurant
POINT (-0.2604378 51.6170384),The Jolly Badger,-0.2604378,51.6170384,restaurant
POINT (-0.1927302 51.5153936),Farmacy,-0.1927302,51.5153936,restaurant
POINT (-0.30222 51.587073),Blue Ginger,-0.30222,51.587073,restaurant
POINT (-0.1160324 51.5049229),The Archduke,-0.1160324,51.5049229,restaurant
POINT (-0.0511268 51.426242),Gurkhas,-0.0511268,51.426242,restaurant
POINT (-0.0996143 51.4955682),Nando's,-0.0996143,51.4955682,restaurant
POINT (-0.1662212 51.4593416),East Street by Tampopo,-0.1662212,51.4593416,restaurant
POINT (-0.1443366 51.5061753),HIDE,-0.1443366,51.5061753,restaurant
POINT (-0.149046 51.5038718),Hard Rock Cafe,-0.149046,51.5038718,restaurant
POINT (-0.1181531 51.5011784),Westminster Kitchen Grill House,-0.1181531,51.5011784,restaurant
POINT (-0.1177239 51.5022577),Troia,-0.1177239,51.5022577,restaurant
POINT (-0.1092101 51.5017722),Waterloo Bar + Kitchen,-0.1092101,51.5017722,restaurant
POINT (-0.1117916 51.5040397),Caprini,-0.1117916,51.5040397,restaurant
POINT (-0.1059391 51.5199572),TAS,-0.1059391,51.5199572,restaurant
POINT (0.0085621 51.4650975),Artis Restaurant & Bar,0.0085621,51.4650975,restaurant
POINT (-0.1307961 51.527096),Prezzo,-0.1307961,51.527096,restaurant
POINT (-0.0907239 51.5278504),Bavarian Beerhouse,-0.0907239,51.5278504,restaurant
POINT (-0.1359536 51.5194121),Icco,-0.1359536,51.5194121,restaurant
POINT (-0.1206359 51.5105048),Simpson's-in-the-Strand,-0.1206359,51.5105048,restaurant
POINT (-0.0984783 51.4948267),La Fogata,-0.0984783,51.4948267,restaurant
POINT (-0.1265922 51.507428),Prezzo,-0.1265922,51.507428,restaurant
POINT (-0.1031097 51.5357099),Afghan Kitchen,-0.1031097,51.5357099,restaurant
POINT (-0.1504349 51.5188893),Naroon,-0.1504349,51.5188893,restaurant
POINT (-0.1048069 51.4983786),Chillies,-0.1048069,51.4983786,restaurant
POINT (-0.1016776 51.5363119),Meat People,-0.1016776,51.5363119,restaurant
POINT (-0.3053997 51.5073791),Butler's Thai,-0.3053997,51.5073791,restaurant
POINT (-0.3054191 51.5074395),Tiramisu,-0.3054191,51.5074395,restaurant
POINT (-0.102945 51.536593),Noci,-0.102945,51.536593,restaurant
POINT (-0.2186266 51.505827),Sixes,-0.2186266,51.505827,restaurant
POINT (-0.1356706 51.4948317),The Vincent Rooms,-0.1356706,51.4948317,restaurant
POINT (-0.183577 51.4987455),Da Mario,-0.183577,51.4987455,restaurant
POINT (-0.1100541 51.5247707),Quality Chop House,-0.1100541,51.5247707,restaurant
POINT (-0.1035577 51.5226758),The Zetter,-0.1035577,51.5226758,restaurant
POINT (-0.1409747 51.514691),Amalfi,-0.1409747,51.514691,restaurant
POINT (-0.1937174 51.5138309),Hereford Road Restaurant,-0.1937174,51.5138309,restaurant
POINT (-0.1937919 51.5141021),Sinuhe persian Tapas Bar,-0.1937919,51.5141021,restaurant
POINT (-0.1938098 51.5141609),Aphrodite Taverna,-0.1938098,51.5141609,restaurant
POINT (-0.1937323 51.5138877),Hafez,-0.1937323,51.5138877,restaurant
POINT (-0.1939946 51.5149041),Moroccan Sahara Restaurant,-0.1939946,51.5149041,restaurant
POINT (-0.1937242 51.5148542),Durbar,-0.1937242,51.5148542,restaurant
POINT (-0.189012 51.50247),Wagamama,-0.189012,51.50247,restaurant
POINT (-0.1413059 51.5151074),Angus Steak Houses,-0.1413059,51.5151074,restaurant
POINT (0.016029 51.4061226),Nando's,0.016029,51.4061226,restaurant
POINT (0.0161748 51.4061361),Zizzi,0.0161748,51.4061361,restaurant
POINT (-0.335322 51.580184),LOKMA,-0.335322,51.580184,restaurant
POINT (-0.107624 51.502764),Olivelli,-0.107624,51.502764,restaurant
POINT (-0.1109605 51.5015282),Cubana,-0.1109605,51.5015282,restaurant
POINT (-0.1109812 51.501757),La Barca,-0.1109812,51.501757,restaurant
POINT (-0.1140982 51.4995269),Ha-Noi,-0.1140982,51.4995269,restaurant
POINT (-0.1127519 51.4988053),Cotto,-0.1127519,51.4988053,restaurant
POINT (-0.1120632 51.4970969),Cafe Ishaq,-0.1120632,51.4970969,restaurant
POINT (-0.1117837 51.4959251),Seveni,-0.1117837,51.4959251,restaurant
POINT (-0.113916 51.4994264),Duke Thai Restaurant,-0.113916,51.4994264,restaurant
POINT (-0.117893 51.501583),Locale,-0.117893,51.501583,restaurant
POINT (-0.1186688 51.5010382),Aji Zen Canteen,-0.1186688,51.5010382,restaurant
POINT (-0.144 51.5224808),Ibérica,-0.144,51.5224808,restaurant
POINT (-0.114644 51.5043933),Azzurro,-0.114644,51.5043933,restaurant
POINT (-0.0931178 51.5247692),Bengal Tiger,-0.0931178,51.5247692,restaurant
POINT (-0.0986838 51.5237038),Breddos,-0.0986838,51.5237038,restaurant
POINT (-0.123717 51.6066206),,-0.123717,51.6066206,restaurant
POINT (-0.132131 51.5092482),Steak & Co.,-0.132131,51.5092482,restaurant
POINT (-0.1322129 51.5094198),PizzaExpress,-0.1322129,51.5094198,restaurant
POINT (-0.1312982 51.5083084),Brumus,-0.1312982,51.5083084,restaurant
POINT (-0.1256931 51.5093476),Barrafina,-0.1256931,51.5093476,restaurant
POINT (-0.1076987 51.5005383),Masters Super Fish,-0.1076987,51.5005383,restaurant
POINT (-0.1117631 51.5038901),Fishcotheque,-0.1117631,51.5038901,restaurant
POINT (-0.111751 51.5039978),The Thames,-0.111751,51.5039978,restaurant
POINT (-0.0909664 51.5053997),roast,-0.0909664,51.5053997,restaurant
POINT (0.0211555 51.5815618),Loon Yee,0.0211555,51.5815618,restaurant
POINT (0.0773786 51.5358098),The Barge Aground,0.0773786,51.5358098,restaurant
POINT (-0.2960945 51.5084487),Charlotte's Place,-0.2960945,51.5084487,restaurant
POINT (-0.1192659 51.5115316),Eneko Basque Kitchen & Bar,-0.1192659,51.5115316,restaurant
POINT (-0.1285696 51.511813),Cafe de Hong Kong,-0.1285696,51.511813,restaurant
POINT (-0.1043329 51.4980823),La Dolce Vita,-0.1043329,51.4980823,restaurant
POINT (-0.1272622 51.5130072),RossoPomodoro,-0.1272622,51.5130072,restaurant
POINT (-0.127144 51.513912),dial,-0.127144,51.513912,restaurant
POINT (-0.1266825 51.5141531),Souk Medina,-0.1266825,51.5141531,restaurant
POINT (-0.126982 51.514755),Cafe Pasta,-0.126982,51.514755,restaurant
POINT (-0.1275055 51.5117889),Spaghetti House,-0.1275055,51.5117889,restaurant
POINT (-0.1260491 51.5116405),Le Garrick,-0.1260491,51.5116405,restaurant
POINT (-0.1257842 51.5115281),Steak and Company,-0.1257842,51.5115281,restaurant
POINT (-0.1463091 51.506235),Titu,-0.1463091,51.506235,restaurant
POINT (0.1317103 51.4115003),Mulberry Tree Restaurant,0.1317103,51.4115003,restaurant
POINT (-0.1930085 51.5151942),Cocotte,-0.1930085,51.5151942,restaurant
POINT (-0.1567924 51.4903948),Carrafini,-0.1567924,51.4903948,restaurant
POINT (-0.1050756 51.5347087),Kanada-Ya,-0.1050756,51.5347087,restaurant
POINT (0.0121433 51.4904895),Sichuan Bar and Restaurant,0.0121433,51.4904895,restaurant
POINT (-0.146262 51.5065224),Kitty Fisher's,-0.146262,51.5065224,restaurant
POINT (-0.1464556 51.5064125),The Little Square,-0.1464556,51.5064125,restaurant
POINT (-0.146556 51.5064791),Misto,-0.146556,51.5064791,restaurant
POINT (-0.1471466 51.5063772),Al Hamra,-0.1471466,51.5063772,restaurant
POINT (-0.1470845 51.5062425),Sofra,-0.1470845,51.5062425,restaurant
POINT (-0.1487651 51.5054899),Prezzo,-0.1487651,51.5054899,restaurant
POINT (-0.1379192 51.5098955),The Veeraswamy,-0.1379192,51.5098955,restaurant
POINT (-0.1396484 51.5110083),Piccolino,-0.1396484,51.5110083,restaurant
POINT (-0.1427645 51.5157047),Ponti's,-0.1427645,51.5157047,restaurant
POINT (-0.1173971 51.5057009),Skylon,-0.1173971,51.5057009,restaurant
POINT (-0.1319044 51.5115651),Kowloon Restaurant and Bakery,-0.1319044,51.5115651,restaurant
POINT (-0.1323648 51.5115503),Gold Mine,-0.1323648,51.5115503,restaurant
POINT (-0.1323731 51.5119533),Singapulah,-0.1323731,51.5119533,restaurant
POINT (-0.076932 51.5237636),Pizza East,-0.076932,51.5237636,restaurant
POINT (-0.191594 51.549541),The Banana Tree Canteen,-0.191594,51.549541,restaurant
POINT (-0.1282179 51.5486083),Aspendos Bar & Grill,-0.1282179,51.5486083,restaurant
POINT (-0.095747 51.488632),Mama Thai,-0.095747,51.488632,restaurant
POINT (0.0217836 51.6099878),Bel Sit,0.0217836,51.6099878,restaurant
POINT (-0.1315053 51.5129947),Belgo,-0.1315053,51.5129947,restaurant
POINT (-0.1314824 51.5138135),Garlic & Shots,-0.1314824,51.5138135,restaurant
POINT (-0.1312464 51.5134563),Little Italy,-0.1312464,51.5134563,restaurant
POINT (-0.1299056 51.5098993),Leicester Square Kitchen,-0.1299056,51.5098993,restaurant
POINT (-0.1300249 51.5093722),Salt'n Pepper,-0.1300249,51.5093722,restaurant
POINT (0.0127059 51.4505282),Cabrera,0.0127059,51.4505282,restaurant
POINT (-0.1267413 51.532465),YO! Sushi,-0.1267413,51.532465,restaurant
POINT (-0.1660465 51.5143736),Le Chef Masgouf,-0.1660465,51.5143736,restaurant
POINT (-0.1650586 51.5148462),Colbeh,-0.1650586,51.5148462,restaurant
POINT (-0.0805174 51.4901086),Dragon Inn,-0.0805174,51.4901086,restaurant
POINT (-0.162556 51.5151599),Saffron,-0.162556,51.5151599,restaurant
POINT (-0.0735229 51.5035895),Le Pont de la Tour,-0.0735229,51.5035895,restaurant
POINT (-0.2062062 51.4749676),Za Pizzica,-0.2062062,51.4749676,restaurant
POINT (-0.1774284 51.4926714),Cacciari's,-0.1774284,51.4926714,restaurant
POINT (-0.1522426 51.5435312),Made in Camden,-0.1522426,51.5435312,restaurant
POINT (-0.1443598 51.5234674),Pizza Express,-0.1443598,51.5234674,restaurant
POINT (-0.1003874 51.4928104),Theo's,-0.1003874,51.4928104,restaurant
POINT (-0.1366971 51.5109792),Kulu Kulu,-0.1366971,51.5109792,restaurant
POINT (-0.4311894 51.5729062),The Orchard Beefeater,-0.4311894,51.5729062,restaurant
POINT (-0.0749635 51.5539858),Che-Men,-0.0749635,51.5539858,restaurant
POINT (-0.0749065 51.5546933),Cavus Baba Sofrasi,-0.0749065,51.5546933,restaurant
POINT (-0.0748596 51.5548979),Ozgazi Antep,-0.0748596,51.5548979,restaurant
POINT (-0.1251014 51.5131461),Cafe Pacifico,-0.1251014,51.5131461,restaurant
POINT (-0.1493994 51.5079198),The Greenhouse,-0.1493994,51.5079198,restaurant
POINT (0.045911 51.5022435),Pizzaza Pizza,0.045911,51.5022435,restaurant
POINT (-0.0737709 51.5622299),Loaded,-0.0737709,51.5622299,restaurant
POINT (-0.0738507 51.5624487),Yum Yum,-0.0738507,51.5624487,restaurant
POINT (-0.1319658 51.5085083),Spaghetti House,-0.1319658,51.5085083,restaurant
POINT (-0.124963 51.58072),Mr Firewater,-0.124963,51.58072,restaurant
POINT (-0.129424 51.5837187),Les Associes,-0.129424,51.5837187,restaurant
POINT (-0.0736359 51.5065571),Vicinity,-0.0736359,51.5065571,restaurant
POINT (-0.0727084 51.5082302),Café Rouge,-0.0727084,51.5082302,restaurant
POINT (-0.073244 51.5083816),Chayote,-0.073244,51.5083816,restaurant
POINT (-0.0729685 51.5082989),Ping Pong,-0.0729685,51.5082989,restaurant
POINT (-0.0137168 51.4777413),Elements Bar And Restaurant,-0.0137168,51.4777413,restaurant
POINT (-0.0967429 51.3986478),Blue and Orange Café Bar,-0.0967429,51.3986478,restaurant
POINT (-0.0785159 51.5000273),Constancia,-0.0785159,51.5000273,restaurant
POINT (-0.175231 51.51195),Nipa,-0.175231,51.51195,restaurant
POINT (-0.103708 51.5374128),Humble Grape,-0.103708,51.5374128,restaurant
POINT (-0.0812871 51.4976029),GB Grill & Bar,-0.0812871,51.4976029,restaurant
POINT (-0.1318191 51.5095696),Woodlands,-0.1318191,51.5095696,restaurant
POINT (-0.1318843 51.5095463),Tasting Sicily,-0.1318843,51.5095463,restaurant
POINT (-0.1319607 51.5095096),Strada,-0.1319607,51.5095096,restaurant
POINT (-0.0390266 51.5685949),Hoo Hing,-0.0390266,51.5685949,restaurant
POINT (0.0094418 51.4660437),Cha-Louis,0.0094418,51.4660437,restaurant
POINT (-0.0687031 51.515279),Bari Bari,-0.0687031,51.515279,restaurant
POINT (-0.1376092 51.5057403),Il Vicolo,-0.1376092,51.5057403,restaurant
POINT (-0.1392041 51.5076994),Wiltons Restaurant,-0.1392041,51.5076994,restaurant
POINT (-0.1347572 51.5091544),Getti,-0.1347572,51.5091544,restaurant
POINT (-0.1332578 51.5088543),Sael,-0.1332578,51.5088543,restaurant
POINT (-0.1414961 51.4635797),Trinity,-0.1414961,51.4635797,restaurant
POINT (-0.1645522 51.5543584),Dar's,-0.1645522,51.5543584,restaurant
POINT (-0.3577992 51.5612609),Curry Mahal,-0.3577992,51.5612609,restaurant
POINT (-0.3581028 51.5604404),Sunshine Café,-0.3581028,51.5604404,restaurant
POINT (-0.082749 51.4963383),M. Manze,-0.082749,51.4963383,restaurant
POINT (-0.2676283 51.4814907),Grove Park Tandoori,-0.2676283,51.4814907,restaurant
POINT (-0.2672742 51.4814773),Reef,-0.2672742,51.4814773,restaurant
POINT (-0.1336651 51.6339926),Kervan Sofrasi,-0.1336651,51.6339926,restaurant
POINT (-0.1312748 51.6334663),Fantozzi,-0.1312748,51.6334663,restaurant
POINT (-0.1263612 51.6330736),Pitta Pan,-0.1263612,51.6330736,restaurant
POINT (-0.1213433 51.5351188),Rotunda,-0.1213433,51.5351188,restaurant
POINT (-0.1228944 51.5302912),,-0.1228944,51.5302912,restaurant
POINT (-0.1227338 51.5303559),Bamboo Inn,-0.1227338,51.5303559,restaurant
POINT (-0.1281981 51.6494303),Bramleys bar & grill,-0.1281981,51.6494303,restaurant
POINT (-0.0665747 51.5317525),Frizzante,-0.0665747,51.5317525,restaurant
POINT (-0.105598 51.504169),Thai Silk,-0.105598,51.504169,restaurant
POINT (-0.1191205 51.5285285),Acorn House,-0.1191205,51.5285285,restaurant
POINT (-0.0305409 51.4065493),PizzaExpress,-0.0305409,51.4065493,restaurant
POINT (-0.1453734 51.5062917),Tiger Green,-0.1453734,51.5062917,restaurant
POINT (-0.1456606 51.5067293),Kiku,-0.1456606,51.5067293,restaurant
POINT (-0.1410563 51.5167882),Wahaca,-0.1410563,51.5167882,restaurant
POINT (-0.141482 51.5182097),Fusion Food House,-0.141482,51.5182097,restaurant
POINT (-0.1276968 51.5109233),J. Sheekey,-0.1276968,51.5109233,restaurant
POINT (-0.1368424 51.5176864),Akoko,-0.1368424,51.5176864,restaurant
POINT (-0.1405976 51.5182666),The Riding House Cafe,-0.1405976,51.5182666,restaurant
POINT (-0.1399849 51.5184073),Homeslice,-0.1399849,51.5184073,restaurant
POINT (-0.1298778 51.5137947),Il Cucciolo,-0.1298778,51.5137947,restaurant
POINT (-0.131102 51.5080614),Mint Leaf,-0.131102,51.5080614,restaurant
POINT (-0.1828772 51.4939392),Bombay Brasserie,-0.1828772,51.4939392,restaurant
POINT (-0.1825232 51.4951949),PizzaExpress,-0.1825232,51.4951949,restaurant
POINT (-0.1316699 51.5172143),Hakkasan,-0.1316699,51.5172143,restaurant
POINT (-0.1317531 51.5169132),Han Kang,-0.1317531,51.5169132,restaurant
POINT (-0.1330152 51.5165617),East Street,-0.1330152,51.5165617,restaurant
POINT (-0.134369 51.5177299),Lima,-0.134369,51.5177299,restaurant
POINT (-0.2715831 51.4866149),Peppers,-0.2715831,51.4866149,restaurant
POINT (-0.2714243 51.4864957),Curry Leaf,-0.2714243,51.4864957,restaurant
POINT (-0.2717978 51.4867587),Copper Cow,-0.2717978,51.4867587,restaurant
POINT (-0.1174455 51.517656),asap,-0.1174455,51.517656,restaurant
POINT (-0.1179988 51.5175681),Holborn Dining Room,-0.1179988,51.5175681,restaurant
POINT (-0.118656 51.5178722),Villandry Kitchen,-0.118656,51.5178722,restaurant
POINT (-0.1199871 51.517425),Asadal,-0.1199871,51.517425,restaurant
POINT (-0.1203426 51.3070929),Curry Leaf,-0.1203426,51.3070929,restaurant
POINT (-0.1132898 51.4551117),Khan's Curry,-0.1132898,51.4551117,restaurant
POINT (-0.1027467 51.4532718),Llewelyn's,-0.1027467,51.4532718,restaurant
POINT (-0.1212779 51.4529048),Negril,-0.1212779,51.4529048,restaurant
POINT (-0.1123313 51.4618489),Asmara,-0.1123313,51.4618489,restaurant
POINT (-0.1235972 51.4492874),Paulo's,-0.1235972,51.4492874,restaurant
POINT (-0.334048 51.5786947),Fish on the Hill,-0.334048,51.5786947,restaurant
POINT (-0.1846827 51.5376901),ThongLor,-0.1846827,51.5376901,restaurant
POINT (-0.2009701 51.5238863),Mosob,-0.2009701,51.5238863,restaurant
POINT (-0.1960235 51.5408097),Barraco,-0.1960235,51.5408097,restaurant
POINT (-0.0811383 51.5271902),The Breakfast Club,-0.0811383,51.5271902,restaurant
POINT (-0.2105117 51.5101308),Julie's,-0.2105117,51.5101308,restaurant
POINT (-0.1038812 51.5224118),Kebabs Made Good,-0.1038812,51.5224118,restaurant
POINT (-0.1168446 51.5106178),The Deli,-0.1168446,51.5106178,restaurant
POINT (-0.0767401 51.4952172),Cafe Amisha,-0.0767401,51.4952172,restaurant
POINT (-0.4564528 51.5341815),The Prince of Wales,-0.4564528,51.5341815,restaurant
POINT (-0.4104848 51.4458415),Golden Empire,-0.4104848,51.4458415,restaurant
POINT (-0.10518 51.529613),St. John Street,-0.10518,51.529613,restaurant
POINT (-0.0138573 51.3804481),Prima Donnas,-0.0138573,51.3804481,restaurant
POINT (-0.0899877 51.4361401),Walter's Bar & Kitchen,-0.0899877,51.4361401,restaurant
POINT (-0.1992765 51.4808918),Love falafel,-0.1992765,51.4808918,restaurant
POINT (-0.1996827 51.4816416),Amigos,-0.1996827,51.4816416,restaurant
POINT (-0.1399882 51.5164527),Tortilla,-0.1399882,51.5164527,restaurant
POINT (-0.0814744 51.5261094),Bottega Prelibato,-0.0814744,51.5261094,restaurant
POINT (-0.140786 51.5142412),Aqua Nueva,-0.140786,51.5142412,restaurant
POINT (-0.1395409 51.5143304),The Carnaby,-0.1395409,51.5143304,restaurant
POINT (-0.1649093 51.5507567),Gourmet Burger Kitchen,-0.1649093,51.5507567,restaurant
POINT (-0.1657252 51.5509772),Chez Bob,-0.1657252,51.5509772,restaurant
POINT (-0.1657457 51.551167),Franco Manca,-0.1657457,51.551167,restaurant
POINT (-0.1648427 51.55072),Tish,-0.1648427,51.55072,restaurant
POINT (-0.1669967 51.5518015),,-0.1669967,51.5518015,restaurant
POINT (-0.1647414 51.5506423),PizzaExpress,-0.1647414,51.5506423,restaurant
POINT (-0.1648203 51.5910621),bangkok lounge,-0.1648203,51.5910621,restaurant
POINT (-0.124524 51.5110343),Pasta Browns,-0.124524,51.5110343,restaurant
POINT (-0.1262777 51.5110414),Goodwhich,-0.1262777,51.5110414,restaurant
POINT (-0.1260306 51.511061),Giovanni's,-0.1260306,51.511061,restaurant
POINT (-0.1264713 51.5110224),MotherMash,-0.1264713,51.5110224,restaurant
POINT (-0.1296511 51.5265711),Number Twelve,-0.1296511,51.5265711,restaurant
POINT (-0.119621 51.5159101),Elaine's,-0.119621,51.5159101,restaurant
POINT (-0.0967356 51.5398829),Taste of India,-0.0967356,51.5398829,restaurant
POINT (-0.0966857 51.5399134),,-0.0966857,51.5399134,restaurant
POINT (-0.0966374 51.5399414),,-0.0966374,51.5399414,restaurant
POINT (-0.1622998 51.5537274),Fleet Tandoori,-0.1622998,51.5537274,restaurant
POINT (-0.1620102 51.5536937),Aroma Spice,-0.1620102,51.5536937,restaurant
POINT (-0.2175382 51.3577782),Mimi e Coco,-0.2175382,51.3577782,restaurant
POINT (-0.2166316 51.3581667),Regional Thai Taste,-0.2166316,51.3581667,restaurant
POINT (-0.2166145 51.3594289),Superfish,-0.2166145,51.3594289,restaurant
POINT (-0.2165984 51.359382),Songkran,-0.2165984,51.359382,restaurant
POINT (-0.2150951 51.3581785),Samsara,-0.2150951,51.3581785,restaurant
POINT (-0.0844458 51.5003476),The Leather Uppers,-0.0844458,51.5003476,restaurant
POINT (-0.1246943 51.5116485),Southern Joe,-0.1246943,51.5116485,restaurant
POINT (-0.204851 51.419898),Wahaca,-0.204851,51.419898,restaurant
POINT (-0.1543483 51.5182485),Il Baretto,-0.1543483,51.5182485,restaurant
POINT (-0.1522662 51.5156167),Wagamama,-0.1522662,51.5156167,restaurant
POINT (-0.1556817 51.5202698),Il Blandford`s,-0.1556817,51.5202698,restaurant
POINT (-0.0735245 51.5170097),China Feng,-0.0735245,51.5170097,restaurant
POINT (-0.1321679 51.51134),Chen Cheng Ku,-0.1321679,51.51134,restaurant
POINT (-0.1126786 51.5007452),Inshoku,-0.1126786,51.5007452,restaurant
POINT (-0.1136084 51.5004988),Sino Thai Restaurant,-0.1136084,51.5004988,restaurant
POINT (-0.15579 51.5907922),Indian Rasoi,-0.15579,51.5907922,restaurant
POINT (-0.1958796 51.572934),L'artista,-0.1958796,51.572934,restaurant
POINT (0.0570134 51.5821968),,0.0570134,51.5821968,restaurant
POINT (-0.125536 51.5263084),DEPA Tandoori,-0.125536,51.5263084,restaurant
POINT (-0.1252983 51.5263951),North Sea Fish,-0.1252983,51.5263951,restaurant
POINT (-0.1255326 51.5200845),Blue Door Bistro,-0.1255326,51.5200845,restaurant
POINT (-0.1222977 51.5233933),Cafe Romano,-0.1222977,51.5233933,restaurant
POINT (-0.1402921 51.516087),28-50 Wine Workshop,-0.1402921,51.516087,restaurant
POINT (-0.1398285 51.5164824),Honest Burgers,-0.1398285,51.5164824,restaurant
POINT (-0.0854105 51.6523617),Roosters Piri Piri,-0.0854105,51.6523617,restaurant
POINT (-0.085657 51.6519813),Wok With 'U',-0.085657,51.6519813,restaurant
POINT (-0.0801445 51.650984),Oriental Chef,-0.0801445,51.650984,restaurant
POINT (-0.0803344 51.6514222),Istanbul,-0.0803344,51.6514222,restaurant
POINT (-0.0804345 51.6518138),Enfield Tandoori,-0.0804345,51.6518138,restaurant
POINT (-0.081108 51.6519824),Nando's,-0.081108,51.6519824,restaurant
POINT (-0.0803934 51.6527401),ChimiChanga,-0.0803934,51.6527401,restaurant
POINT (-0.0812863 51.6523001),Prezzo,-0.0812863,51.6523001,restaurant
POINT (0.0212806 51.6088244),Marina meze,0.0212806,51.6088244,restaurant
POINT (-0.081188 51.49867),Cafe Murano,-0.081188,51.49867,restaurant
POINT (-0.1173056 51.5195045),The Bull,-0.1173056,51.5195045,restaurant
POINT (-0.1170832 51.5195776),Kam Fung,-0.1170832,51.5195776,restaurant
POINT (-0.1911009 51.5207774),Lime Cuisine,-0.1911009,51.5207774,restaurant
POINT (-0.3358988 51.5802023),Kebab Land Restaurant,-0.3358988,51.5802023,restaurant
POINT (-0.3330612 51.5815236),Nando's,-0.3330612,51.5815236,restaurant
POINT (-0.3342519 51.5805406),Melissa,-0.3342519,51.5805406,restaurant
POINT (-0.0947567 51.437168),Indigo,-0.0947567,51.437168,restaurant
POINT (-0.1387275 51.5566933),The Spice,-0.1387275,51.5566933,restaurant
POINT (-0.1529658 51.543898),Feng Sushi,-0.1529658,51.543898,restaurant
POINT (-0.1391793 51.5560543),Lalibella,-0.1391793,51.5560543,restaurant
POINT (-0.1387749 51.5561031),Blue Moon Cafe,-0.1387749,51.5561031,restaurant
POINT (-0.1443646 51.5394999),Hache,-0.1443646,51.5394999,restaurant
POINT (-0.144013 51.5396218),Made in Brasil,-0.144013,51.5396218,restaurant
POINT (-0.1408045 51.5527921),Patron Cave à Manger,-0.1408045,51.5527921,restaurant
POINT (-0.1407999 51.5528139),Pizzeria Melanzana,-0.1407999,51.5528139,restaurant
POINT (-0.1408969 51.5523048),eatzone,-0.1408969,51.5523048,restaurant
POINT (-0.140944 51.5519328),Kami,-0.140944,51.5519328,restaurant
POINT (-0.1408582 51.5516468),Delicious by Franco,-0.1408582,51.5516468,restaurant
POINT (-0.1574747 51.5411445),OKA Restaurant,-0.1574747,51.5411445,restaurant
POINT (-0.1577218 51.5407473),Pesantissimo,-0.1577218,51.5407473,restaurant
POINT (-0.0267868 51.5695953),Good View,-0.0267868,51.5695953,restaurant
POINT (0.0945283 51.4565617),Shampan Curry Restaurant,0.0945283,51.4565617,restaurant
POINT (-0.0578387 51.5270577),La Forchetta,-0.0578387,51.5270577,restaurant
POINT (-0.3051414 51.5111842),Côte,-0.3051414,51.5111842,restaurant
POINT (-0.158209 51.5201135),Ishtar,-0.158209,51.5201135,restaurant
POINT (-0.0719256 51.5072109),Zizzi,-0.0719256,51.5072109,restaurant
POINT (-0.3260945 51.4469649),Tsaretta Spice,-0.3260945,51.4469649,restaurant
POINT (-0.1262617 51.5117018),The Forge,-0.1262617,51.5117018,restaurant
POINT (-0.1226525 51.5113602),The Ivy Market Grill,-0.1226525,51.5113602,restaurant
POINT (-0.1230469 51.5112293),Notto,-0.1230469,51.5112293,restaurant
POINT (-0.124251 51.5118304),Palm Court Brasserie,-0.124251,51.5118304,restaurant
POINT (-0.1238856 51.5108399),Frenchie Covent Garden,-0.1238856,51.5108399,restaurant
POINT (-0.1281624 51.5177985),Scoff & Banter,-0.1281624,51.5177985,restaurant
POINT (-0.130176 51.5173032),VQ,-0.130176,51.5173032,restaurant
POINT (-0.1246635 51.5116782),Clos Maggiore,-0.1246635,51.5116782,restaurant
POINT (-0.2367 51.532137),Centro Galego de Londres,-0.2367,51.532137,restaurant
POINT (-0.132417 51.5434022),A Baía,-0.132417,51.5434022,restaurant
POINT (-0.3338499 51.5796666),Hakkaland,-0.3338499,51.5796666,restaurant
POINT (0.0223745 51.5953268),Vadi,0.0223745,51.5953268,restaurant
POINT (-0.1245412 51.5780201),Satay Malaysia,-0.1245412,51.5780201,restaurant
POINT (-0.1246595 51.5778915),WOW Simply Japanese,-0.1246595,51.5778915,restaurant
POINT (-0.3078849 51.4094094),Byrons,-0.3078849,51.4094094,restaurant
POINT (-0.3075899 51.4094299),Carluccio's,-0.3075899,51.4094299,restaurant
POINT (-0.3070373 51.4092318),Cammasan,-0.3070373,51.4092318,restaurant
POINT (-0.3074209 51.4078565),Giggling Squid,-0.3074209,51.4078565,restaurant
POINT (-0.0870699 51.6613227),Saathi,-0.0870699,51.6613227,restaurant
POINT (-0.1331937 51.5248729),The Refectory,-0.1331937,51.5248729,restaurant
POINT (-0.3034076 51.4552429),The Bingham,-0.3034076,51.4552429,restaurant
POINT (-0.1256672 51.5171649),Ultimate Burger,-0.1256672,51.5171649,restaurant
POINT (-0.0813299 51.6640664),Great Wall,-0.0813299,51.6640664,restaurant
POINT (-0.2026875 51.522222),Sporting Club de Londres,-0.2026875,51.522222,restaurant
POINT (-0.1261956 51.5095635),Colonel Saab,-0.1261956,51.5095635,restaurant
POINT (-0.1812374 51.5477513),YO! Sushi,-0.1812374,51.5477513,restaurant
POINT (0.0339484 51.5905937),Bhangra Beat,0.0339484,51.5905937,restaurant
POINT (-0.1257487 51.5134572),Hawksmoor,-0.1257487,51.5134572,restaurant
POINT (0.0279782 51.591602),Wing Sing,0.0279782,51.591602,restaurant
POINT (-0.1791704 51.4918404),Bumpkin,-0.1791704,51.4918404,restaurant
POINT (-0.3062117 51.4984277),L'oro di Napoli,-0.3062117,51.4984277,restaurant
POINT (-0.3065747 51.5131232),Las Iguanas,-0.3065747,51.5131232,restaurant
POINT (-0.3069124 51.5130849),Franco Manca,-0.3069124,51.5130849,restaurant
POINT (-0.124234 51.3783021),Chiquito,-0.124234,51.3783021,restaurant
POINT (-0.1243785 51.378184),Frankie & Benny's,-0.1243785,51.378184,restaurant
POINT (-0.1249868 51.3777257),Nando's,-0.1249868,51.3777257,restaurant
POINT (-0.1256738 51.3777053),Cosmo,-0.1256738,51.3777053,restaurant
POINT (-0.1918314 51.3601203),Nando's,-0.1918314,51.3601203,restaurant
POINT (-0.191883 51.3602172),Zizzi,-0.191883,51.3602172,restaurant
POINT (-0.1139987 51.4806333),24 The Oval,-0.1139987,51.4806333,restaurant
POINT (-0.2000726 51.3439433),Curryzma,-0.2000726,51.3439433,restaurant
POINT (-0.164296 51.4046865),Bamboo,-0.164296,51.4046865,restaurant
POINT (-0.1736653 51.3573302),La Banca,-0.1736653,51.3573302,restaurant
POINT (-0.1701193 51.356835),Sakura,-0.1701193,51.356835,restaurant
POINT (-0.1498227 51.4433999),Indian Room,-0.1498227,51.4433999,restaurant
POINT (-0.1496081 51.4430856),Bento,-0.1496081,51.4430856,restaurant
POINT (-0.1492648 51.4429653),Tajine,-0.1492648,51.4429653,restaurant
POINT (-0.1500158 51.4437744),PizzaExpress,-0.1500158,51.4437744,restaurant
POINT (-0.1499514 51.4435872),Franco Manca,-0.1499514,51.4435872,restaurant
POINT (-0.1505362 51.4458122),Nando's,-0.1505362,51.4458122,restaurant
POINT (-0.1491146 51.4467434),Krishna Palace,-0.1491146,51.4467434,restaurant
POINT (-0.1532003 51.4426239),Lamberts,-0.1532003,51.4426239,restaurant
POINT (-0.133173 51.4637073),La Rueda,-0.133173,51.4637073,restaurant
POINT (-0.1349267 51.4626965),Maharani,-0.1349267,51.4626965,restaurant
POINT (-0.1298283 51.4649576),Sappho Meze Bar,-0.1298283,51.4649576,restaurant
POINT (-0.1630808 51.4079877),Raj,-0.1630808,51.4079877,restaurant
POINT (-0.157697 51.4650734),Palace Spice Indian,-0.157697,51.4650734,restaurant
POINT (-0.1589121 51.4648187),Tunman Thai,-0.1589121,51.4648187,restaurant
POINT (-0.1587561 51.4648466),Blossom by Khans,-0.1587561,51.4648466,restaurant
POINT (-0.1631253 51.4644447),Panahar,-0.1631253,51.4644447,restaurant
POINT (-0.1535927 51.465871),Gastronhome,-0.1535927,51.465871,restaurant
POINT (-0.1526515 51.4660305),Love Pinsa,-0.1526515,51.4660305,restaurant
POINT (-0.1526698 51.4663022),Amazing Thai,-0.1526698,51.4663022,restaurant
POINT (-0.1548203 51.4656299),Siam Brasserie,-0.1548203,51.4656299,restaurant
POINT (-0.1536883 51.4660874),Nancy Lam's Enak Enak,-0.1536883,51.4660874,restaurant
POINT (-0.1503802 51.4675417),Town,-0.1503802,51.4675417,restaurant
POINT (-0.1502829 51.4678735),Le Pot Lyonnais,-0.1502829,51.4678735,restaurant
POINT (-0.166234 51.4583448),Akash Tandoori,-0.166234,51.4583448,restaurant
POINT (-0.1661647 51.4581486),SOI • THAI,-0.1661647,51.4581486,restaurant
POINT (-0.1662767 51.4595183),Brew,-0.1662767,51.4595183,restaurant
POINT (-0.1660946 51.459035),Made in Italy,-0.1660946,51.459035,restaurant
POINT (-0.1629327 51.461208),Scoffers,-0.1629327,51.461208,restaurant
POINT (-0.1664404 51.4600043),Osteria Antica Bologna,-0.1664404,51.4600043,restaurant
POINT (-0.1644569 51.4610054),Sinabro,-0.1644569,51.4610054,restaurant
POINT (-0.1662319 51.460921),Pizza Metro Pizza,-0.1662319,51.460921,restaurant
POINT (-0.1656795 51.4609147),Thai Garden,-0.1656795,51.4609147,restaurant
POINT (-0.1650727 51.4609675),Indian Moment,-0.1650727,51.4609675,restaurant
POINT (-0.1455156 51.5072215),Beiteddine Express,-0.1455156,51.5072215,restaurant
POINT (-0.1384372 51.5120768),Myung Ga,-0.1384372,51.5120768,restaurant
POINT (-0.3057158 51.5121467),PizzaExpress,-0.3057158,51.5121467,restaurant
POINT (-0.3020909 51.5155404),Hare & Tortoise,-0.3020909,51.5155404,restaurant
POINT (-0.3055676 51.5117342),Pho Saigon,-0.3055676,51.5117342,restaurant
POINT (-0.305894 51.512593),Nando's,-0.305894,51.512593,restaurant
POINT (-0.3069449 51.5014995),Sayurit Sushi,-0.3069449,51.5014995,restaurant
POINT (-0.3011843 51.5141818),Monty's,-0.3011843,51.5141818,restaurant
POINT (-0.1227182 51.5169886),Gezellig,-0.1227182,51.5169886,restaurant
POINT (-0.2227986 51.4881928),Elissar,-0.2227986,51.4881928,restaurant
POINT (-0.2224269 51.4882622),Spitfire,-0.2224269,51.4882622,restaurant
POINT (-0.1423649 51.4662735),Mongolian Grill,-0.1423649,51.4662735,restaurant
POINT (-0.145792 51.3584249),Wallington Pizzeria,-0.145792,51.3584249,restaurant
POINT (-0.1438411 51.3587879),Sizzle & Shake,-0.1438411,51.3587879,restaurant
POINT (-0.1955533 51.4801754),Brasa,-0.1955533,51.4801754,restaurant
POINT (-0.1958871 51.4794093),El Metro,-0.1958871,51.4794093,restaurant
POINT (-0.18764 51.5158849),Masala Zone,-0.18764,51.5158849,restaurant
POINT (-0.1943691 51.5092812),Eat Tokyo,-0.1943691,51.5092812,restaurant
POINT (-0.3048171 51.5125452),Pulcinella Pizzeria,-0.3048171,51.5125452,restaurant
POINT (-0.1297252 51.5161465),Paramount,-0.1297252,51.5161465,restaurant
POINT (-0.0982903 51.5300868),Tas Firin,-0.0982903,51.5300868,restaurant
POINT (-0.1325376 51.5646494),Che Cosa,-0.1325376,51.5646494,restaurant
POINT (-0.1327747 51.565018),The Sitara,-0.1327747,51.565018,restaurant
POINT (-0.1332825 51.5649628),Loving Hut,-0.1332825,51.5649628,restaurant
POINT (-0.1247591 51.5266008),Chilli Cool,-0.1247591,51.5266008,restaurant
POINT (-0.1440459 51.5107108),The Square,-0.1440459,51.5107108,restaurant
POINT (-0.1573535 51.5213058),Nando's,-0.1573535,51.5213058,restaurant
POINT (-0.1623904 51.5537419),Mam's Fish Restaurant,-0.1623904,51.5537419,restaurant
POINT (-0.1007555 51.4926074),Donde Lucho,-0.1007555,51.4926074,restaurant
POINT (-0.1003007 51.4928692),,-0.1003007,51.4928692,restaurant
POINT (-0.135224 51.519676),Delaney & Co.,-0.135224,51.519676,restaurant
POINT (-0.164596 51.553868),The Little Thai,-0.164596,51.553868,restaurant
POINT (-0.1269174 51.6326875),La Paella,-0.1269174,51.6326875,restaurant
POINT (-0.3231567 51.4495082),Makan-Makan,-0.3231567,51.4495082,restaurant
POINT (-0.1213857 51.5177637),Nando's,-0.1213857,51.5177637,restaurant
POINT (-0.1508838 51.5613583),Al Parco,-0.1508838,51.5613583,restaurant
POINT (-0.1783607 51.5592003),,-0.1783607,51.5592003,restaurant
POINT (-0.1386126 51.5163873),Yalla Yalla,-0.1386126,51.5163873,restaurant
POINT (-0.1894998 51.5155802),Fresco,-0.1894998,51.5155802,restaurant
POINT (-0.1920599 51.5152939),Al Waha,-0.1920599,51.5152939,restaurant
POINT (-0.1739088 51.4951564),South Kensington Kitchen,-0.1739088,51.4951564,restaurant
POINT (-0.1412386 51.4972113),Browns Victoria,-0.1412386,51.4972113,restaurant
POINT (-0.1377968 51.510542),Nando's,-0.1377968,51.510542,restaurant
POINT (-0.1787232 51.5126008),Taormina,-0.1787232,51.5126008,restaurant
POINT (-0.1947464 51.4937724),Addie's Thai,-0.1947464,51.4937724,restaurant
POINT (-0.1948648 51.4939774),You Me Sushi,-0.1948648,51.4939774,restaurant
POINT (-0.1408887 51.5522417),Queen of Sheba,-0.1408887,51.5522417,restaurant
POINT (-0.003845 51.5363239),The Pie Crust (Thai),-0.003845,51.5363239,restaurant
POINT (-0.1919303 51.536503),Chaiiwala,-0.1919303,51.536503,restaurant
POINT (-0.1629746 51.464457),Mien Tay,-0.1629746,51.464457,restaurant
POINT (-0.1179411 51.5632174),Yeshi Ethopian Cuisine,-0.1179411,51.5632174,restaurant
POINT (-0.1513701 51.5160218),Pelican State,-0.1513701,51.5160218,restaurant
POINT (-0.1426454 51.5159033),Kintan,-0.1426454,51.5159033,restaurant
POINT (-0.1524237 51.5158723),Zizzi,-0.1524237,51.5158723,restaurant
POINT (-0.1124945 51.5736243),GoodsOffice,-0.1124945,51.5736243,restaurant
POINT (-0.0991429 51.5784727),Cigkoftem,-0.0991429,51.5784727,restaurant
POINT (-0.0991526 51.5785222),Bianca Pizzeria,-0.0991526,51.5785222,restaurant
POINT (-0.1983677 51.4992931),Street Burger,-0.1983677,51.4992931,restaurant
POINT (-0.1732576 51.4858563),Byron,-0.1732576,51.4858563,restaurant
POINT (-0.1311523 51.4896404),Lebanese Gardens,-0.1311523,51.4896404,restaurant
POINT (-0.1185989 51.5634976),Rusty Thai Cafe,-0.1185989,51.5634976,restaurant
POINT (-0.1254513 51.4929286),PizzaExpress,-0.1254513,51.4929286,restaurant
POINT (-0.0272475 51.4693813),Meze Mangal Turkish restaurant,-0.0272475,51.4693813,restaurant
POINT (-0.086912 51.6607407),La Caverna,-0.086912,51.6607407,restaurant
POINT (-0.120454 51.5320065),Addis,-0.120454,51.5320065,restaurant
POINT (-0.1237274 51.5803453),Khoai,-0.1237274,51.5803453,restaurant
POINT (-0.0216781 51.4731318),Alla Salute,-0.0216781,51.4731318,restaurant
POINT (-0.177165 51.5566901),La Cage Imaginaire,-0.177165,51.5566901,restaurant
POINT (-0.3936553 51.5981092),Mangosteen,-0.3936553,51.5981092,restaurant
POINT (-0.3816108 51.5917198),Sakee Bar & Restaurant,-0.3816108,51.5917198,restaurant
POINT (-0.3818577 51.5918891),Thai Villa,-0.3818577,51.5918891,restaurant
POINT (-0.3842856 51.595357),Titash,-0.3842856,51.595357,restaurant
POINT (-0.4265369 51.6119398),Maharaja,-0.4265369,51.6119398,restaurant
POINT (-0.4263852 51.6119195),Northwood Piazza,-0.4263852,51.6119195,restaurant
POINT (-0.190854 51.5478908),Rosa's,-0.190854,51.5478908,restaurant
POINT (-0.1379367 51.4615374),Metro,-0.1379367,51.4615374,restaurant
POINT (-0.146251 51.4538084),Pizzeria on the Green,-0.146251,51.4538084,restaurant
POINT (-0.1461722 51.4538733),Haweli of Clapham,-0.1461722,51.4538733,restaurant
POINT (0.0226593 51.5964852),Prezzo,0.0226593,51.5964852,restaurant
POINT (0.0225003 51.5951293),PizzaExpress,0.0225003,51.5951293,restaurant
POINT (-0.3993528 51.5781064),Shapla,-0.3993528,51.5781064,restaurant
POINT (-0.3993153 51.5780631),Pisces,-0.3993153,51.5780631,restaurant
POINT (-0.3995084 51.5798666),Virundhu,-0.3995084,51.5798666,restaurant
POINT (0.0003434 51.5424902),Sichuan Grand,0.0003434,51.5424902,restaurant
POINT (0.000641 51.5405696),Rodina 2,0.000641,51.5405696,restaurant
POINT (-0.1130558 51.4551259),RapChar,-0.1130558,51.4551259,restaurant
POINT (-0.1342327 51.5127064),Pilau,-0.1342327,51.5127064,restaurant
POINT (-0.0244647 51.408562),Chom Chom,-0.0244647,51.408562,restaurant
POINT (-0.1290242 51.495406),Osteria Dell'Angolo,-0.1290242,51.495406,restaurant
POINT (-0.1290467 51.4955478),Papa Bruno,-0.1290467,51.4955478,restaurant
POINT (-0.1531295 51.5127062),Mayfair Garden,-0.1531295,51.5127062,restaurant
POINT (-0.1552059 51.5112595),Le Gavroche,-0.1552059,51.5112595,restaurant
POINT (-0.111418 51.5319254),Lucky Skewers,-0.111418,51.5319254,restaurant
POINT (-0.111273 51.5343086),Little Georgia,-0.111273,51.5343086,restaurant
POINT (-0.1821775 51.4934902),Steak & Co.,-0.1821775,51.4934902,restaurant
POINT (-0.1818195 51.4935204),Nando's,-0.1818195,51.4935204,restaurant
POINT (-0.182309 51.4937048),Fait Maison Salon de Thé,-0.182309,51.4937048,restaurant
POINT (-0.1845066 51.5241693),Janan,-0.1845066,51.5241693,restaurant
POINT (-0.1574248 51.5133771),Pizza Hut,-0.1574248,51.5133771,restaurant
POINT (-0.1897507 51.4485232),Green Curry Thai Cafe,-0.1897507,51.4485232,restaurant
POINT (-0.1899992 51.4436596),Amrutha Lounge,-0.1899992,51.4436596,restaurant
POINT (-0.1738568 51.6046623),Pizza Hut,-0.1738568,51.6046623,restaurant
POINT (-0.1726698 51.6039584),ASK Italian,-0.1726698,51.6039584,restaurant
POINT (-0.1736143 51.6047094),Nando's,-0.1736143,51.6047094,restaurant
POINT (-0.191883 51.5038971),La Fortuna,-0.191883,51.5038971,restaurant
POINT (-0.3148164 51.511719),Molana,-0.3148164,51.511719,restaurant
POINT (-0.3063194 51.5131572),Pho,-0.3063194,51.5131572,restaurant
POINT (-0.3083789 51.5125072),Salts Smokehouse,-0.3083789,51.5125072,restaurant
POINT (-0.3073357 51.5126691),Boof,-0.3073357,51.5126691,restaurant
POINT (-0.3071612 51.5126907),Honest Burgers,-0.3071612,51.5126907,restaurant
POINT (-0.3080678 51.5125489),Good Fortune Club,-0.3080678,51.5125489,restaurant
POINT (-0.1892705 51.500525),Grato,-0.1892705,51.500525,restaurant
POINT (-0.2010625 51.4985397),Enotecha Rosso,-0.2010625,51.4985397,restaurant
POINT (-0.201717 51.4982855),Samad Al Iraqi,-0.201717,51.4982855,restaurant
POINT (-0.2005329 51.5738234),Dizengoff,-0.2005329,51.5738234,restaurant
POINT (-0.02259 51.5903207),Quattro Stagioni,-0.02259,51.5903207,restaurant
POINT (0.0272083 51.5765313),Otto Restaurant,0.0272083,51.5765313,restaurant
POINT (-0.1506637 51.5174597),The Ivy,-0.1506637,51.5174597,restaurant
POINT (-0.1506478 51.5175791),St. John Marylebone,-0.1506478,51.5175791,restaurant
POINT (-0.149577 51.5163556),ASK Italian,-0.149577,51.5163556,restaurant
POINT (-0.3337665 51.5793535),Domino's,-0.3337665,51.5793535,restaurant
POINT (-0.3338604 51.5797948),Crispy Dosa,-0.3338604,51.5797948,restaurant
POINT (-0.333865 51.5798444),Steakout,-0.333865,51.5798444,restaurant
POINT (-0.2189515 51.5059391),Busaba Eathai,-0.2189515,51.5059391,restaurant
POINT (-0.2224895 51.5064813),Cabana,-0.2224895,51.5064813,restaurant
POINT (-0.2228194 51.5064194),Zizzi,-0.2228194,51.5064194,restaurant
POINT (-0.2211857 51.5066775),Bill's,-0.2211857,51.5066775,restaurant
POINT (-0.2218315 51.5065796),The Real Greek,-0.2218315,51.5065796,restaurant
POINT (-0.2214896 51.5066338),Gourmet Burger Kitchen,-0.2214896,51.5066338,restaurant
POINT (-0.2220825 51.5065417),Wahaca,-0.2220825,51.5065417,restaurant
POINT (-0.1457785 51.5127937),Hush,-0.1457785,51.5127937,restaurant
POINT (-0.1264865 51.512421),Bill's,-0.1264865,51.512421,restaurant
POINT (-0.3354174 51.557489),Taste of Watan,-0.3354174,51.557489,restaurant
POINT (-0.1398488 51.5131833),Patty&Bun,-0.1398488,51.5131833,restaurant
POINT (-0.2203972 51.5064854),Balans,-0.2203972,51.5064854,restaurant
POINT (-0.2197484 51.506216),Mandaloun,-0.2197484,51.506216,restaurant
POINT (-0.2195459 51.5061358),Wagamama,-0.2195459,51.5061358,restaurant
POINT (-0.3322653 51.5821874),,-0.3322653,51.5821874,restaurant
POINT (-0.0936574 51.5239131),The Iskele,-0.0936574,51.5239131,restaurant
POINT (-0.0936252 51.5238481),Cozzo,-0.0936252,51.5238481,restaurant
POINT (-0.232146 51.4925038),Sagar,-0.232146,51.4925038,restaurant
POINT (-0.2190858 51.4878507),Reynold's Cafe,-0.2190858,51.4878507,restaurant
POINT (-0.1154119 51.5598591),Brothers,-0.1154119,51.5598591,restaurant
POINT (-0.1236796 51.5804419),Florian's 2,-0.1236796,51.5804419,restaurant
POINT (-0.1237572 51.5801342),O's Thai Cafe,-0.1237572,51.5801342,restaurant
POINT (-0.1880877 51.605495),Divans,-0.1880877,51.605495,restaurant
POINT (-0.0135068 51.4873426),The Old Fire Station,-0.0135068,51.4873426,restaurant
POINT (-0.1281225 51.5115207),Angus Steak House,-0.1281225,51.5115207,restaurant
POINT (-0.3354692 51.5573867),Royal Gujarat Restaurant,-0.3354692,51.5573867,restaurant
POINT (-0.1454507 51.4945357),Frankie & Benny's,-0.1454507,51.4945357,restaurant
POINT (-0.2114633 51.4949171),Argentine Steak House,-0.2114633,51.4949171,restaurant
POINT (-0.1013075 51.5209669),Tinseltown,-0.1013075,51.5209669,restaurant
POINT (-0.1504571 51.571551),Centuno,-0.1504571,51.571551,restaurant
POINT (-0.1579433 51.5222414),ShakeShuka,-0.1579433,51.5222414,restaurant
POINT (-0.1583146 51.5221772),Ikkan sushi,-0.1583146,51.5221772,restaurant
POINT (-0.1195234 51.5117682),Indigo,-0.1195234,51.5117682,restaurant
POINT (-0.1626731 51.368324),Taka,-0.1626731,51.368324,restaurant
POINT (-0.2009511 51.6579966),Odos,-0.2009511,51.6579966,restaurant
POINT (-0.1986944 51.6526801),SouvLike It,-0.1986944,51.6526801,restaurant
POINT (-0.1992938 51.6533077),Dudley's Pancake House,-0.1992938,51.6533077,restaurant
POINT (-0.2006082 51.6533484),Emchai,-0.2006082,51.6533484,restaurant
POINT (-0.0961089 51.6419326),Grange Park Tandoori,-0.0961089,51.6419326,restaurant
POINT (-0.096344 51.6419939),The Grange,-0.096344,51.6419939,restaurant
POINT (-0.1686641 51.372967),Bombay,-0.1686641,51.372967,restaurant
POINT (-0.09457 51.3484975),Taste of Bengal,-0.09457,51.3484975,restaurant
POINT (-0.1692543 51.3712583),The Emperor's Kitchen,-0.1692543,51.3712583,restaurant
POINT (-0.102115 51.538902),Paul,-0.102115,51.538902,restaurant
POINT (-0.1681672 51.3628132),Hazar Meze Restaurant,-0.1681672,51.3628132,restaurant
POINT (-0.1526652 51.3661482),Jerk N Jollof,-0.1526652,51.3661482,restaurant
POINT (-0.1810058 51.4731888),Blue Elephant,-0.1810058,51.4731888,restaurant
POINT (-0.0356376 51.4742044),Goldsmiths Canteen,-0.0356376,51.4742044,restaurant
POINT (-0.1278599 51.4349996),Nando's,-0.1278599,51.4349996,restaurant
POINT (-0.127931 51.4346084),Bocca,-0.127931,51.4346084,restaurant
POINT (-0.1269754 51.5158122),Byron,-0.1269754,51.5158122,restaurant
POINT (-0.1277363 51.4372154),PizzaExpress,-0.1277363,51.4372154,restaurant
POINT (-0.1284681 51.4346234),Slurp,-0.1284681,51.4346234,restaurant
POINT (-0.1685126 51.3574475),Mohini,-0.1685126,51.3574475,restaurant
POINT (-0.1700817 51.3570687),Vinoteca Italiana,-0.1700817,51.3570687,restaurant
POINT (-0.1700858 51.3569958),2 Beeches Avenue,-0.1700858,51.3569958,restaurant
POINT (-0.0013201 51.5381669),Lime Cafe and Grill,-0.0013201,51.5381669,restaurant
POINT (-0.1355565 51.5116167),Mele & Pere,-0.1355565,51.5116167,restaurant
POINT (-0.1942532 51.4802969),PizzaExpress,-0.1942532,51.4802969,restaurant
POINT (-0.1942988 51.480382),Nando's,-0.1942988,51.480382,restaurant
POINT (-0.1910739 51.3588554),Il Toscano,-0.1910739,51.3588554,restaurant
POINT (-0.191424 51.3585472),Noor Jahan,-0.191424,51.3585472,restaurant
POINT (-0.1910565 51.3587565),Spaghetti Tree,-0.1910565,51.3587565,restaurant
POINT (-0.0344356 51.4760277),Mez Mangal Turkish Cuisine,-0.0344356,51.4760277,restaurant
POINT (-0.1917909 51.3593664),ii-ma Sushi,-0.1917909,51.3593664,restaurant
POINT (-0.1918512 51.3593087),Casa Nostra,-0.1918512,51.3593087,restaurant
POINT (-0.1919706 51.3591361),Heen's,-0.1919706,51.3591361,restaurant
POINT (-0.191486 51.3601325),Lobster & Grill,-0.191486,51.3601325,restaurant
POINT (-0.1949558 51.3690371),Rio,-0.1949558,51.3690371,restaurant
POINT (-0.1950357 51.368545),Lahore Spices,-0.1950357,51.368545,restaurant
POINT (-0.0377872 51.4756875),Bella Italian Pizzeria,-0.0377872,51.4756875,restaurant
POINT (-0.0353405 51.475323),Go Sing,-0.0353405,51.475323,restaurant
POINT (-0.1945105 51.3709502),The Golden Lion,-0.1945105,51.3709502,restaurant
POINT (-0.1610571 51.4004316),Park Place,-0.1610571,51.4004316,restaurant
POINT (-0.0353954 51.4753532),Think Big Eat Greek,-0.0353954,51.4753532,restaurant
POINT (-0.0354579 51.4753843),Yao Kee,-0.0354579,51.4753843,restaurant
POINT (-0.0357167 51.4754786),Noodles and Rice,-0.0357167,51.4754786,restaurant
POINT (-0.1349177 51.5184731),Oscar Bar and Restaurant,-0.1349177,51.5184731,restaurant
POINT (-0.0371554 51.4725464),,-0.0371554,51.4725464,restaurant
POINT (-0.0829588 51.5255789),Hoxton Grill,-0.0829588,51.5255789,restaurant
POINT (-0.0126887 51.5002858),Yuhoki,-0.0126887,51.5002858,restaurant
POINT (-0.0193041 51.5015256),Hazev Restaurant,-0.0193041,51.5015256,restaurant
POINT (-0.01848 51.5013917),Goodman,-0.01848,51.5013917,restaurant
POINT (-0.0176468 51.4975232),Byblos Harbour,-0.0176468,51.4975232,restaurant
POINT (-0.0343426 51.4852869),South Kebab & Meze Bar,-0.0343426,51.4852869,restaurant
POINT (-0.1933333 51.4802983),Bruschetta,-0.1933333,51.4802983,restaurant
POINT (-0.0205366 51.5861808),Sodo Pizza Café,-0.0205366,51.5861808,restaurant
POINT (-0.0236752 51.5842301),Tree Island,-0.0236752,51.5842301,restaurant
POINT (-0.0781922 51.5015068),Wawa,-0.0781922,51.5015068,restaurant
POINT (-0.0914182 51.5063082),Franco Manca,-0.0914182,51.5063082,restaurant
POINT (-0.3054949 51.4979271),Mosaic Kitchen,-0.3054949,51.4979271,restaurant
POINT (-0.1163361 51.50557),Canteen,-0.1163361,51.50557,restaurant
POINT (-0.1897538 51.4812924),Frankie's,-0.1897538,51.4812924,restaurant
POINT (-0.0247303 51.4086042),ASK Italian,-0.0247303,51.4086042,restaurant
POINT (0.0052581 51.5014168),Banana Tree,0.0052581,51.5014168,restaurant
POINT (-0.085644 51.524557),McQueen,-0.085644,51.524557,restaurant
POINT (0.0980947 51.5949192),,0.0980947,51.5949192,restaurant
POINT (-0.0634614 51.5172654),Tayyabs,-0.0634614,51.5172654,restaurant
POINT (-0.1480184 51.4506637),The Avalon,-0.1480184,51.4506637,restaurant
POINT (-0.1585329 51.5819277),Dacha Russian Restaurant and Deli,-0.1585329,51.5819277,restaurant
POINT (-0.1467732 51.4930325),Sobranie Bar & Restaurant,-0.1467732,51.4930325,restaurant
POINT (-0.0899601 51.5057703),Altamarea,-0.0899601,51.5057703,restaurant
POINT (-0.1004869 51.372806),Nando's,-0.1004869,51.372806,restaurant
POINT (-0.0970894 51.3739183),Wagamama,-0.0970894,51.3739183,restaurant
POINT (-0.0825694 51.5050569),Little Farm,-0.0825694,51.5050569,restaurant
POINT (-0.081239 51.5039617),Brigade Bar & Bistro,-0.081239,51.5039617,restaurant
POINT (-0.0940472 51.4846255),La Luna,-0.0940472,51.4846255,restaurant
POINT (-0.0988576 51.3688504),Atesh Restaurant,-0.0988576,51.3688504,restaurant
POINT (-0.1141976 51.5596148),Caribbean Cuisine,-0.1141976,51.5596148,restaurant
POINT (-0.1148308 51.5602783),Java House,-0.1148308,51.5602783,restaurant
POINT (-0.1763924 51.4937997),Mama Pho,-0.1763924,51.4937997,restaurant
POINT (0.0253879 51.5786184),Robins Pie & Mash,0.0253879,51.5786184,restaurant
POINT (-0.138603 51.5569053),Spaghetti House,-0.138603,51.5569053,restaurant
POINT (-0.0940919 51.4799732),Canaan Restaurant,-0.0940919,51.4799732,restaurant
POINT (-0.0943687 51.4824214),Emukay,-0.0943687,51.4824214,restaurant
POINT (-0.094379 51.4825876),Red Sea,-0.094379,51.4825876,restaurant
POINT (-0.0941853 51.4834221),Legacy,-0.0941853,51.4834221,restaurant
POINT (-0.093892 51.4837862),Abokobi Ghanaian Restaurant,-0.093892,51.4837862,restaurant
POINT (-0.255765 51.39927),Palace,-0.255765,51.39927,restaurant
POINT (-0.2559431 51.4004705),Al Forno,-0.2559431,51.4004705,restaurant
POINT (-0.2566161 51.402656),Lal Akash,-0.2566161,51.402656,restaurant
POINT (-0.2565711 51.4024263),Nori,-0.2565711,51.4024263,restaurant
POINT (-0.2571478 51.4041531),K Town,-0.2571478,51.4041531,restaurant
POINT (-0.2572873 51.4046434),Royal Gurkha,-0.2572873,51.4046434,restaurant
POINT (-0.2570514 51.4048625),The Wok Express,-0.2570514,51.4048625,restaurant
POINT (-0.1908146 51.3580438),Sofra Grill and Restaurant,-0.1908146,51.3580438,restaurant
POINT (0.0146235 51.3907345),Sabir Tandoori,0.0146235,51.3907345,restaurant
POINT (0.0232434 51.5949906),Nino's,0.0232434,51.5949906,restaurant
POINT (0.0231429 51.5949989),Thai Street,0.0231429,51.5949989,restaurant
POINT (-0.0943964 51.3746781),Nando's,-0.0943964,51.3746781,restaurant
POINT (-0.1594484 51.4647247),Basilico,-0.1594484,51.4647247,restaurant
POINT (-0.0361444 51.5496827),Rose Garden,-0.0361444,51.5496827,restaurant
POINT (-0.0362167 51.549665),Imperial Flavors (East),-0.0362167,51.549665,restaurant
POINT (-0.1971027 51.4993121),Raj of Kensington,-0.1971027,51.4993121,restaurant
POINT (-0.1654488 51.4609376),Pho,-0.1654488,51.4609376,restaurant
POINT (-0.162809 51.4611077),Pi,-0.162809,51.4611077,restaurant
POINT (-0.1625605 51.4608881),Little Bird,-0.1625605,51.4608881,restaurant
POINT (-0.1627322 51.4611135),Humble Grape,-0.1627322,51.4611135,restaurant
POINT (0.0877074 51.3602265),Seabream Fish Bar,0.0877074,51.3602265,restaurant
POINT (0.0885282 51.3607173),Noname Cafe,0.0885282,51.3607173,restaurant
POINT (0.087914 51.3606519),Bamboo,0.087914,51.3606519,restaurant
POINT (-0.2216742 51.5891478),Sami's,-0.2216742,51.5891478,restaurant
POINT (-0.0799405 51.5891484),Big Bowl Noodle,-0.0799405,51.5891484,restaurant
POINT (-0.0062482 51.5066487),Il Bianco,-0.0062482,51.5066487,restaurant
POINT (-0.1674878 51.4606872),Dip & Flip,-0.1674878,51.4606872,restaurant
POINT (-0.0814971 51.498013),Flour & Grape,-0.0814971,51.498013,restaurant
POINT (0.0700787 51.4903006),Favourite Inn,0.0700787,51.4903006,restaurant
POINT (-0.1191968 51.5019611),Zen China,-0.1191968,51.5019611,restaurant
POINT (-0.2641378 51.5087112),Anokha,-0.2641378,51.5087112,restaurant
POINT (-0.4489894 51.4821787),Il Basilico,-0.4489894,51.4821787,restaurant
POINT (0.0266397 51.5925997),Wood Oven Kitchen,0.0266397,51.5925997,restaurant
POINT (-0.1236697 51.6067762),Ilias grill,-0.1236697,51.6067762,restaurant
POINT (-0.3398221 51.5706288),Blues Restaurant & Bar,-0.3398221,51.5706288,restaurant
POINT (-0.163784 51.4539544),KIBOU,-0.163784,51.4539544,restaurant
POINT (-0.1648892 51.4553363),Manifesto Pizza,-0.1648892,51.4553363,restaurant
POINT (-0.1654847 51.4561586),Macellaio,-0.1654847,51.4561586,restaurant
POINT (-0.1649 51.4558729),Numero Uno,-0.1649,51.4558729,restaurant
POINT (-0.296186 51.595507),Just Paratha,-0.296186,51.595507,restaurant
POINT (-0.1182279 51.5130398),The Delaunay,-0.1182279,51.5130398,restaurant
POINT (0.024834 51.5937977),George's Fish & Souvlaki Bar,0.024834,51.5937977,restaurant
POINT (0.0232662 51.5947502),Zizzi,0.0232662,51.5947502,restaurant
POINT (-0.1661839 51.4581922),Franco Manca,-0.1661839,51.4581922,restaurant
POINT (0.0641476 51.5075713),The Edge,0.0641476,51.5075713,restaurant
POINT (-0.0903919 51.5285262),Tomahawk Steakhouse Hoxton,-0.0903919,51.5285262,restaurant
POINT (0.0223326 51.5954197),Nando's,0.0223326,51.5954197,restaurant
POINT (-0.1280102 51.5302262),British Library restaurant,-0.1280102,51.5302262,restaurant
POINT (0.0221148 51.5945276),Bella Naples,0.0221148,51.5945276,restaurant
POINT (0.0221263 51.5944414),The Empress,0.0221263,51.5944414,restaurant
POINT (0.0226489 51.5931936),Parlay E18,0.0226489,51.5931936,restaurant
POINT (0.0733249 51.3596796),Village Cuisine,0.0733249,51.3596796,restaurant
POINT (-0.2809198 51.5850133),Nando's,-0.2809198,51.5850133,restaurant
POINT (-0.2808039 51.5849566),,-0.2808039,51.5849566,restaurant
POINT (-0.1926087 51.3611677),Number One Thai,-0.1926087,51.3611677,restaurant
POINT (-0.1928642 51.3611577),Papaya,-0.1928642,51.3611577,restaurant
POINT (-0.1093857 51.5206007),Anglo,-0.1093857,51.5206007,restaurant
POINT (-0.1174489 51.5198175),Eat Tokyo,-0.1174489,51.5198175,restaurant
POINT (-0.0202573 51.502652),Obica,-0.0202573,51.502652,restaurant
POINT (-0.1769428 51.6153817),Pita Time,-0.1769428,51.6153817,restaurant
POINT (-0.3020657 51.5158279),Rosa's Thai Cafe,-0.3020657,51.5158279,restaurant
POINT (-0.30207 51.5157481),Haven Grill,-0.30207,51.5157481,restaurant
POINT (-0.1002798 51.370596),Ponte Nuovo,-0.1002798,51.370596,restaurant
POINT (0.0053015 51.555136),Sofra Hasjane,0.0053015,51.555136,restaurant
POINT (-0.0275326 51.5115909),New Beijing Chinese Restaurant,-0.0275326,51.5115909,restaurant
POINT (-0.0428224 51.5300832),Palmers Restaurant,-0.0428224,51.5300832,restaurant
POINT (-0.25534 51.3990012),Sorabol,-0.25534,51.3990012,restaurant
POINT (-0.0574554 51.4657758),400 rabbits,-0.0574554,51.4657758,restaurant
POINT (-0.0614678 51.5368592),Buen Ayre,-0.0614678,51.5368592,restaurant
POINT (-0.0614237 51.5369003),Franco Manca,-0.0614237,51.5369003,restaurant
POINT (-0.1869628 51.4945279),Checkmate Bar & Restaurant,-0.1869628,51.4945279,restaurant
POINT (0.02793 51.5916438),Taxim,0.02793,51.5916438,restaurant
POINT (0.028378 51.591574),Jaipur,0.028378,51.591574,restaurant
POINT (-0.2858771 51.4776073),Antipodea,-0.2858771,51.4776073,restaurant
POINT (-0.2858215 51.4775555),Ma Cuisine,-0.2858215,51.4775555,restaurant
POINT (-0.2859381 51.4776542),PizzaExpress,-0.2859381,51.4776542,restaurant
POINT (-0.1577998 51.512928),140 Park Lane,-0.1577998,51.512928,restaurant
POINT (-0.1005161 51.3724531),Rodizio Preto,-0.1005161,51.3724531,restaurant
POINT (-0.0954703 51.3741629),Miso Noodle Bar,-0.0954703,51.3741629,restaurant
POINT (-0.1279779 51.5118036),Sartori,-0.1279779,51.5118036,restaurant
POINT (-0.3198328 51.5139192),Aroma,-0.3198328,51.5139192,restaurant
POINT (-0.1404398 51.4540141),Newtons Restaurant & Bar,-0.1404398,51.4540141,restaurant
POINT (-0.1599963 51.5159652),TOKii,-0.1599963,51.5159652,restaurant
POINT (-0.1634759 51.5162154),The Pickled Hen,-0.1634759,51.5162154,restaurant
POINT (0.0874797 51.6027393),Monsoon,0.0874797,51.6027393,restaurant
POINT (-0.0307632 51.406596),Nando's,-0.0307632,51.406596,restaurant
POINT (-0.1216168 51.5191157),Hummus Bros,-0.1216168,51.5191157,restaurant
POINT (-0.110094 51.5254684),Caravan,-0.110094,51.5254684,restaurant
POINT (-0.0997255 51.3688272),The Tava Shop,-0.0997255,51.3688272,restaurant
POINT (-0.0989175 51.3678437),Siam Town,-0.0989175,51.3678437,restaurant
POINT (-0.0997548 51.3689087),Paratha Inn,-0.0997548,51.3689087,restaurant
POINT (0.0214089 51.5965861),Dynasty,0.0214089,51.5965861,restaurant
POINT (-0.1620106 51.5015655),Mr Chow,-0.1620106,51.5015655,restaurant
POINT (-0.1617168 51.5015757),The Buddha Bar,-0.1617168,51.5015757,restaurant
POINT (-0.2572437 51.4928795),Megan's,-0.2572437,51.4928795,restaurant
POINT (-0.115924 51.5291532),Sen Viet,-0.115924,51.5291532,restaurant
POINT (-0.0188771 51.5284248),Myra Grill,-0.0188771,51.5284248,restaurant
POINT (-0.124147 51.4822033),Mumbai Delight,-0.124147,51.4822033,restaurant
POINT (-0.1330899 51.5112339),Ed's Easy Diner,-0.1330899,51.5112339,restaurant
POINT (-0.2562077 51.4928976),Tarantella,-0.2562077,51.4928976,restaurant
POINT (-0.1359401 51.5258632),Gest,-0.1359401,51.5258632,restaurant
POINT (-0.1920077 51.3605224),PizzaExpress,-0.1920077,51.3605224,restaurant
POINT (-0.2858162 51.4770322),Hawthorn,-0.2858162,51.4770322,restaurant
POINT (-0.0329524 51.580149),Fraznos,-0.0329524,51.580149,restaurant
POINT (-0.0872283 51.5240972),Salvation Jane,-0.0872283,51.5240972,restaurant
POINT (-0.0967752 51.3629186),Boulevard,-0.0967752,51.3629186,restaurant
POINT (-0.2049769 51.5156491),Electric diner,-0.2049769,51.5156491,restaurant
POINT (-0.1455603 51.5070258),Burger & Lobster,-0.1455603,51.5070258,restaurant
POINT (-0.1994567 51.4859209),La Table Restaurant,-0.1994567,51.4859209,restaurant
POINT (-0.2825114 51.5615814),Sara's Kitchen,-0.2825114,51.5615814,restaurant
POINT (0.045211 51.5774242),Rima Tandoori,0.045211,51.5774242,restaurant
POINT (-0.0901597 51.5978553),Maandeeq,-0.0901597,51.5978553,restaurant
POINT (-0.1308116 51.5132484),Soho Kitchen & Bar,-0.1308116,51.5132484,restaurant
POINT (-0.1013028 51.3725965),Surrey StrEatery,-0.1013028,51.3725965,restaurant
POINT (-0.1504016 51.4674448),Forbidden Temple,-0.1504016,51.4674448,restaurant
POINT (-0.1384649 51.5117142),Nopi,-0.1384649,51.5117142,restaurant
POINT (0.0265801 51.5777875),City Place,0.0265801,51.5777875,restaurant
POINT (0.0272758 51.5770661),Piccolo Italian Restaurant,0.0272758,51.5770661,restaurant
POINT (-0.2284865 51.5668734),Wing Tai,-0.2284865,51.5668734,restaurant
POINT (-0.3389723 51.5515642),Chungs,-0.3389723,51.5515642,restaurant
POINT (-0.3392915 51.5502216),Crispy Dosa,-0.3392915,51.5502216,restaurant
POINT (-0.1253052 51.5357237),Caravan,-0.1253052,51.5357237,restaurant
POINT (-0.160987 51.5147017),Donostia,-0.160987,51.5147017,restaurant
POINT (-0.1610469 51.5148582),Sandy's,-0.1610469,51.5148582,restaurant
POINT (-0.1568534 51.5152188),The Montagu,-0.1568534,51.5152188,restaurant
POINT (-0.1572987 51.5150635),Locanda Locatelli,-0.1572987,51.5150635,restaurant
POINT (-0.158298 51.515059),Boxcar,-0.158298,51.515059,restaurant
POINT (-0.1053112 51.4224216),Monkey's,-0.1053112,51.4224216,restaurant
POINT (-0.1260753 51.5095894),Xi Home Dumplings Bay,-0.1260753,51.5095894,restaurant
POINT (-0.1773029 51.6163803),3 Oceans,-0.1773029,51.6163803,restaurant
POINT (-0.4024567 51.5422374),Stanbury's,-0.4024567,51.5422374,restaurant
POINT (-0.0620804 51.5266085),Nando's,-0.0620804,51.5266085,restaurant
POINT (-0.1218585 51.5197958),Taste of China,-0.1218585,51.5197958,restaurant
POINT (-0.2959165 51.3932448),New Kwun Sing,-0.2959165,51.3932448,restaurant
POINT (-0.1415885 51.5912181),PizzaExpress,-0.1415885,51.5912181,restaurant
POINT (-0.0999686 51.5829074),Mykonos Gyros,-0.0999686,51.5829074,restaurant
POINT (-0.0994241 51.5818758),Hanedan,-0.0994241,51.5818758,restaurant
POINT (-0.0999153 51.5826365),Kofteci Metin,-0.0999153,51.5826365,restaurant
POINT (-0.0996457 51.5831423),Selale,-0.0996457,51.5831423,restaurant
POINT (0.0866624 51.5737708),Oasis,0.0866624,51.5737708,restaurant
POINT (0.0841129 51.5732699),Mirage Steak House,0.0841129,51.5732699,restaurant
POINT (0.0838715 51.5728765),Banana Leaf,0.0838715,51.5728765,restaurant
POINT (0.0840378 51.5743735),Curry Special,0.0840378,51.5743735,restaurant
POINT (-0.1770042 51.6174565),Nippon Izakaya,-0.1770042,51.6174565,restaurant
POINT (-0.1765697 51.6173827),Ai Sushi,-0.1765697,51.6173827,restaurant
POINT (-0.1765682 51.6172759),Awesome Thai,-0.1765682,51.6172759,restaurant
POINT (-0.108349 51.5656894),My Cottage Cafe,-0.108349,51.5656894,restaurant
POINT (-0.1793132 51.5193444),Zizzi,-0.1793132,51.5193444,restaurant
POINT (-0.1790432 51.5190797),Smiths Bar and Grill,-0.1790432,51.5190797,restaurant
POINT (-0.16256 51.4985696),Laduree,-0.16256,51.4985696,restaurant
POINT (-0.1691255 51.4875601),Phât Phúc Noodle Bar,-0.1691255,51.4875601,restaurant
POINT (-0.0875454 51.5481216),Khas Tandoori,-0.0875454,51.5481216,restaurant
POINT (0.0668813 51.5768699),Mandarin Palace,0.0668813,51.5768699,restaurant
POINT (-0.0375698 51.4757247),Exotic Bites,-0.0375698,51.4757247,restaurant
POINT (-0.3190508 51.55179),Sundarban Tandoori,-0.3190508,51.55179,restaurant
POINT (-0.1378818 51.50602),Crussh,-0.1378818,51.50602,restaurant
POINT (-0.1160658 51.5300678),Mediterraneo,-0.1160658,51.5300678,restaurant
POINT (-0.0692116 51.4696742),Levan,-0.0692116,51.4696742,restaurant
POINT (-0.1361257 51.5096962),Hawksmoor,-0.1361257,51.5096962,restaurant
POINT (-0.1202747 51.5168813),Wagamama,-0.1202747,51.5168813,restaurant
POINT (-0.1200775 51.5111326),Frankie & Benny's,-0.1200775,51.5111326,restaurant
POINT (-0.126957 51.5240863),Nonna Selena Pizzeria,-0.126957,51.5240863,restaurant
POINT (-0.132496 51.5096319),Tiger Tiger,-0.132496,51.5096319,restaurant
POINT (-0.1584996 51.5200656),Burj Al Arab,-0.1584996,51.5200656,restaurant
POINT (-0.1916023 51.4718529),Arthur's,-0.1916023,51.4718529,restaurant
POINT (-0.1352012 51.5117989),Bill's,-0.1352012,51.5117989,restaurant
POINT (-0.1259538 51.5111858),Benito's Hat,-0.1259538,51.5111858,restaurant
POINT (-0.1320106 51.4994554),Blue Boar,-0.1320106,51.4994554,restaurant
POINT (-0.0381989 51.5128206),Basilico,-0.0381989,51.5128206,restaurant
POINT (-0.1329113 51.5650704),Go Bong,-0.1329113,51.5650704,restaurant
POINT (-0.1675748 51.4275438),Chickeninn,-0.1675748,51.4275438,restaurant
POINT (-0.2942973 51.5733695),Wings,-0.2942973,51.5733695,restaurant
POINT (-0.0874928 51.6171558),Chutney Express,-0.0874928,51.6171558,restaurant
POINT (-0.0872541 51.616826),Amigos,-0.0872541,51.616826,restaurant
